id,type,latitude,longitude,shop_type,name,address,street,city,postcode
130942937,node,53.3365213,-6.2438927,jewelry,Diamant,"Mount Street Crescent, Dublin",Mount Street Crescent,Dublin,
138099058,node,53.4199794,-6.3820549,supermarket,SuperValu,"Tyrrelstown Plaza, Tyrrelstown",Tyrrelstown Plaza,Tyrrelstown,
187768500,node,53.4009558,-6.1796922,supermarket,Tesco,"Malahide Road, Dublin",Malahide Road,Dublin,
197618958,node,54.5554421,-5.9069277,convenience,Tesco Express,"188, Saintfield Road, BT8 6NN",Saintfield Road,,BT8 6NN
224778670,node,53.1720854,-6.5336251,supermarket,Dunnes Stores,"The Mall Newtown Centre, Newtown Square, Main Street, Blessington, W91 T521",Main Street,Blessington,W91 T521
243778438,node,53.3590213,-6.424661,electrical,DID Electrical,"Lucan Road, Lucan",Lucan Road,Lucan,
243778439,node,53.3586559,-6.424617,doityourself,Woodie's,Lucan,,Lucan,
246636037,node,54.2415357,-6.950431,car,Ford,,,,
249338235,node,53.3861819,-6.3788096,supermarket,SuperValu,"Main Street, Blanchardstown",Main Street,Blanchardstown,
249430226,node,53.3504156,-6.2557289,chemist,Unknown,"Talbot Street, Dublin",Talbot Street,Dublin,
254091429,node,53.2059553,-6.1117228,supermarket,SuperValu,"Castle Street, Bray",Castle Street,Bray,
254364900,node,53.202864,-6.100923,convenience,Deveney's,,,,
254364910,node,53.2023826,-6.1003786,convenience,Ideal Stores,,,,
259770616,node,53.3007671,-6.1890586,convenience,Straney's Newsagent,"51, Mount Merrion Avenue",Mount Merrion Avenue,,
263367123,node,53.3476135,-6.4219985,supermarket,Eurospar,"Castle Road, Lucan",Castle Road,Lucan,
269704354,node,53.0307862,-9.2892978,convenience;gas,Mace,"Main Street, Lisdoonvarna",Main Street,Lisdoonvarna,
269704633,node,53.0282484,-9.2905817,dry_cleaning,Unknown,,,,
269704715,node,53.0291264,-9.2895788,convenience;gas,Spar,,,,
269925851,node,53.0150728,-9.404681,kiosk,Unknown,,,,
278011396,node,53.4279138,-6.2428203,convenience,Wrights Food Fayre,"Dublin Airport, Dublin",Dublin Airport,Dublin,
278740035,node,53.0418431,-9.138717,gift,Unknown,,,,
281089396,node,53.2887578,-9.0662609,convenience,Day-Today,Corrib Village,Corrib Village,,
281097610,node,53.2813182,-9.0649616,convenience,Centra,"Upper Newcastle Road, Galway",Upper Newcastle Road,Galway,
281174255,node,53.3432408,-6.2388322,supermarket,Fresh,"Grand Canal Square, Dublin",Grand Canal Square,Dublin,
281174464,node,53.3432637,-6.2441791,supermarket,Centra,"Pearse Street, Dublin",Pearse Street,Dublin,
288761601,node,53.2785616,-9.0495215,supermarket,Lidl,"Headford Road, Galway",Headford Road,Galway,
290480184,node,53.7189309,-6.3470747,hardware,Eddies Hardware,,,,
290480189,node,53.7188757,-6.3464147,pet_grooming,Head 2 Tail Grooming Parlour,,,,
290658528,node,53.5119548,-6.3979894,hardware,Murtagh's,,,,
290661357,node,53.5123706,-6.3986156,convenience,Daybreak,"Frederick Street, Ashbourne",Frederick Street,Ashbourne,
290661359,node,53.5124096,-6.3986549,beauty,Lady Sarah's,"Frederick Street, Ashbourne",Frederick Street,Ashbourne,
290705351,node,53.7180275,-6.3634072,convenience,Mell Stores,,,,
290738974,node,53.7205173,-6.3500545,laundry,EastEnders,,,,
290753004,node,53.7251659,-6.3611004,funeral_directors,Funeral Home 1,"Bog Road, Drogheda",Bog Road,Drogheda,
290994737,node,54.7727807,-5.7513421,outdoor,C.F Beattie - Shooting/Fishing,,,,
290994738,node,54.7729193,-5.7510074,convenience,NearBuy,,,,
290995517,node,54.7722311,-5.7512391,butcher,Cleaver & Steel,,,,
291546016,node,53.7198046,-6.3572366,furniture,Unknown,"North Road, Drogheda",North Road,Drogheda,
291594604,node,53.3402787,-6.2362398,supermarket,Eurospar,"Barrow Street, Dublin",Barrow Street,Dublin,
293524418,node,53.2747352,-6.3450534,convenience,Spar,Parklands Road,Parklands Road,,
296449236,node,53.4466521,-6.2380816,supermarket,SuperValu,"Boroimhe Road, Swords",Boroimhe Road,Swords,
296511406,node,53.4709682,-6.2315978,supermarket,Eurospar,"Applewood Main Street, Swords",Applewood Main Street,Swords,
297812081,node,53.3931343,-6.3676759,convenience,Spar,,,,
300247459,node,53.3282173,-6.3423204,furniture,Reid Furniture,,,,
300247460,node,53.3283708,-6.3416674,carpet,Carpetright,,,,
300247464,node,53.3243137,-6.3497797,car,Pat Igoe,Dublin,,Dublin,
300247466,node,53.3245686,-6.3516856,truck,Harris,"Naas Road, D12 KX57",Naas Road,,D12 KX57
300290435,node,53.2917541,-6.4412767,car,Jaguar Land Rover Ireland Ltd - HQ,"Clonlara Avenue, Baldonnell Business Park",Clonlara Avenue,Baldonnell Business Park,
300290437,node,53.2918217,-6.4406509,truck,DAF Distributors Ireland Ltd.,"Clonlara Avenue, Baldonnell Business Park, D22W1H9",Clonlara Avenue,Baldonnell Business Park,D22W1H9
300331589,node,53.0311722,-7.2965305,supermarket,Tesco,"James Fintan Lalor Avenue, Portlaoise",James Fintan Lalor Avenue,Portlaoise,
300351156,node,53.2735194,-7.4838608,supermarket,Dunnes Stores,,,,
300545789,node,53.5217561,-7.3611887,convenience,Unknown,,,,
305312854,node,53.3435518,-6.2619456,outdoor,Cotswold Outdoor,"10-12, Saint Andrew Street, Dublin",Saint Andrew Street,Dublin,
305313396,node,53.3446102,-6.2686326,bakery,The Bakery,"Essex Street West, Dublin",Essex Street West,Dublin,
306019422,node,53.0143672,-7.1478736,convenience,Gala,,,,
306019429,node,53.0174626,-7.1510383,supermarket,SuperValu,Stradbally,,Stradbally,
306019432,node,53.0178761,-7.1527785,convenience,The Grandstand,,,,
306630794,node,53.6538482,-6.6868998,clothes,Penneys,"Kennedy Road, Navan",Kennedy Road,Navan,
306630801,node,53.6541417,-6.687736,supermarket,Dunnes Stores,"Kennedy Road, Navan",Kennedy Road,Navan,
306630802,node,53.6538303,-6.6882843,supermarket,Tesco,"Kennedy Road, Navan",Kennedy Road,Navan,
306954914,node,53.6585775,-6.7151096,doityourself,Navan Hire & Hardware,,,,
306954919,node,53.6560691,-6.7015482,doityourself,Woodie's,"Blackwater Retail Park, Navan",Blackwater Retail Park,Navan,
306968124,node,53.6426933,-6.6891995,supermarket,SuperValu,Navan,,Navan,
306976067,node,53.6439151,-6.6603484,supermarket,SuperValu,"Metges Road, Navan",Metges Road,Navan,
306976089,node,53.6406846,-6.7071143,doityourself,Commons Hardware,,,,
308023541,node,53.2783372,-9.0496608,pet,Maxi Zoo,"Headford Road, Galway",Headford Road,Galway,
308961349,node,53.3491387,-6.2317518,convenience,Spar,,,,
310407929,node,53.3442807,-6.2658706,gift,Carroll's,"Dame Street, Dublin",Dame Street,Dublin,
311100348,node,53.3472105,-6.2632578,convenience,Spar,"Liffey Street Lower, Dublin",Liffey Street Lower,Dublin,
311194971,node,53.2366657,-6.1190095,convenience,Centra,"Shanganagh Wood, Shankill",Shanganagh Wood,Shankill,
311195236,node,53.2314532,-6.1237863,convenience,Tesco Express,Dublin Road,Dublin Road,,
311197910,node,53.2307975,-6.1242058,convenience,Spar,Main Street,Main Street,,
311298974,node,53.3494914,-6.2670631,outdoor,Basecamp,"1-4, Jervis Street",Jervis Street,,
311299258,node,53.3496011,-6.2671154,toys,Smyths,Jervis Street,Jervis Street,,
311343801,node,53.3484361,-6.2643181,supermarket,M&S Foodhall,"Liffey Street Upper, Dublin",Liffey Street Upper,Dublin,
311344008,node,53.3480715,-6.265225,supermarket,Tesco,"Mary Street, Dublin",Mary Street,Dublin,
311990080,node,53.3253867,-6.2553078,convenience,Spar,"Fields Terrace, Dublin",Fields Terrace,Dublin,
311994034,node,53.3328084,-6.264749,vacant,Unknown,"Camden Street Upper, Dublin",Camden Street Upper,Dublin,
312566858,node,53.3416706,-6.2269146,charity,NCBI Home,,,,
312568603,node,53.3412034,-6.2261202,convenience,Tesco Express,"Fitzwilliam Street, Dublin",Fitzwilliam Street,Dublin,
312577430,node,53.3291601,-6.2307087,convenience,Spar,"Merrion Road, Dublin",Merrion Road,Dublin,
312888405,node,53.5048229,-6.4670626,convenience,Tesco Express,"Fairyhouse Road, Ratoath",Fairyhouse Road,Ratoath,
313311904,node,55.2005825,-6.2544418,supermarket,Spar,Castle Street,Castle Street,,
313311917,node,55.2060368,-6.2539897,supermarket,Spar,Moyle Road,Moyle Road,,
315269739,node,55.1717795,-6.7104596,supermarket,Spar,Coleraine Road,Coleraine Road,,
321896408,node,53.0015566,-7.4743569,convenience,Centra,"Market Square, Mountrath",Market Square,Mountrath,
322703289,node,53.2701805,-6.1413906,convenience,Circle K,Rochestown Avenue,Rochestown Avenue,,
323226141,node,53.1523314,-6.0818726,convenience,Spar,"Blacklion Manor Road, Greystones",Blacklion Manor Road,Greystones,
325762143,node,53.3556479,-6.3709617,convenience,Londis,Kennelsfort Road Lower,Kennelsfort Road Lower,,
325783580,node,53.3561587,-6.2867075,supermarket,Tesco,"Prussia Street, Dublin",Prussia Street,Dublin,
331372330,node,53.202149,-6.1105212,convenience,Holland's Off-License,,,,
335469507,node,53.3813613,-6.5895866,sports,Equestrian World,,,,
335579068,node,53.280383,-6.444838,convenience,Centra,"Garter Lane, Saggart",Garter Lane,Saggart,
335716892,node,53.3815091,-6.5855945,laundry,Dove Dry Cleaners,,,,
335716979,node,53.3799732,-6.5827434,hairdresser,Occasions,,,,
335717500,node,53.3811699,-6.5855803,butcher,Coyne Family Butcher,,,,
335754695,node,53.3805977,-6.5883785,supermarket,SuperValu,"Straffan Road, Maynooth",Straffan Road,Maynooth,
335980360,node,53.3392362,-6.3199786,supermarket,Eurospar,"Emmet Road, Dublin",Emmet Road,Dublin,
339869163,node,53.7888857,-6.2403877,convenience,Unknown,,,,
342206969,node,53.7626051,-6.2718781,butcher,McEvoy's,,,,
343056907,node,53.7574936,-6.2766643,garden_centre,Forge Farm,,,,
351793124,node,53.3819367,-6.5876353,stationery,Maynooth Office Supplies Ltd.,,,,
351793133,node,53.381938,-6.5877238,hardware,Haven Hire,,,,
352667438,node,53.3818802,-6.591546,optician,Optometrist David Gildea,,,,
352669299,node,53.3811261,-6.5909069,gift,The Glass Doll,,,,
352669300,node,53.3810057,-6.5907997,hairdresser,The Square Barbers,,,,
352669303,node,53.3809398,-6.5905868,hardware,Three Pin Electrical,,,,
352671762,node,53.3809287,-6.5922905,alcohol,Roost Off License,,,,
352672503,node,53.3811211,-6.5929151,mobile_phone,Xpressfix,"Parson Street, Maynooth",Parson Street,Maynooth,
352673564,node,53.3811949,-6.5929624,beauty,Helen Gray,,,,
352673565,node,53.3812226,-6.5929933,beverages,Apache Pizza,"Mill Street, Maynooth, W23 V3P6",Mill Street,Maynooth,W23 V3P6
352674188,node,53.3728308,-6.5987433,hairdresser,Hot Heads Hair,,,,
352674189,node,53.3729834,-6.5990327,convenience,Spar,,,,
354880889,node,53.3740636,-6.587893,convenience,Centra,"Maynooth Park, Maynooth",Maynooth Park,Maynooth,
354880890,node,53.3740052,-6.5878152,butcher,Tommy's Butchers,"Maynooth Park, Maynooth, W23 V5D0",Maynooth Park,Maynooth,W23 V5D0
354880891,node,53.3739452,-6.5877428,hairdresser,Redz Barberz,,,,
354880893,node,53.3739124,-6.5877012,laundry,Dry Cleaner,,,,
354880898,node,53.3739468,-6.587429,charity,Vincent's,,,,
359968059,node,53.382008,-6.5900296,convenience,Londis,,,,
366363183,node,53.3412401,-6.261265,clothes,Jack Wills,Dublin,,Dublin,
366930972,node,53.2935411,-8.7504485,supermarket,Tesco,,,,
369328129,node,53.2990245,-8.7475074,gift,The Fields of Athenry,Athenry,,Athenry,
369367336,node,53.331687,-6.27892,convenience,Spar,,,,
369367922,node,53.3322445,-6.2692153,convenience,Spar,"13, South Circular Road, Dublin",South Circular Road,Dublin,
369368754,node,53.3360471,-6.2984584,convenience,Centra,"South Circular Road, Dublin",South Circular Road,Dublin,
369369673,node,53.3424908,-6.2942122,convenience,Spar,"James's Street, Dublin",James's Street,Dublin,
370206890,node,53.3855187,-6.0652007,convenience,Centra,"Main Street, Howth",Main Street,Howth,
370213860,node,53.3492933,-6.2783922,supermarket,Fresh,"Smithfield, Dublin",Smithfield,Dublin,
387223332,node,53.3488672,-6.2437225,department_store,Marks & Spencer,"Excise Walk, Dublin",Excise Walk,Dublin,
387490680,node,53.4475694,-6.222371,doityourself,B&Q,"Lakeshore Drive, Swords",Lakeshore Drive,Swords,
387542980,node,53.1199942,-9.6716944,butcher,Unknown,,,,
392594147,node,53.0828881,-6.7983881,convenience,Matt's,,,,
401248767,node,53.3817554,-6.5947001,vacant,Manor Mills Shopping Centre,"Mill Street, Maynooth",Mill Street,Maynooth,
401248768,node,53.3819633,-6.5939587,books,Eason,,,,
401248769,node,53.3822206,-6.5939479,supermarket,Dunnes Stores,"Mill Street, Maynooth",Mill Street,Maynooth,
405712189,node,53.3841249,-6.6003621,convenience,Londis,"Kilcock Road, Maynooth",Kilcock Road,Maynooth,
405712192,node,53.3838575,-6.6001098,books,University Bookshop,,,,
408399880,node,53.6473573,-6.6542811,hairdresser,Boys II Men Barbers,,,,
408980007,node,53.6356795,-6.6483058,convenience,Mace,,,,
409717878,node,53.6537409,-6.6862417,books,Eason,Paddy O'Brien Street,Paddy O'Brien Street,,
409740225,node,53.6632279,-6.676885,hairdresser,Castle Barbers,"10, Blackcastle Shopping Centre, Navan, C15 DE40",Blackcastle Shopping Centre,Navan,C15 DE40
409740226,node,53.6631492,-6.6774487,convenience,Fagan's Nearby Blackcastle,"5, Blackcastle Shopping Centre, Navan, C15 X289",Blackcastle Shopping Centre,Navan,C15 X289
409740229,node,53.6633174,-6.6775723,butcher,Lorenzen's Butchers,"2, Blackcastle Shopping Centre, Navan, C15 WR50",Blackcastle Shopping Centre,Navan,C15 WR50
409740232,node,53.6633563,-6.6769912,laundry,Bubbles Launderette,"12, Blackcastle Shopping Centre, Navan, C15 YD25",Blackcastle Shopping Centre,Navan,C15 YD25
409740235,node,53.659812,-6.6884251,hairdresser,Adam Gayle Hairdressing,"Navan, C15 C658",,Navan,C15 C658
409745564,node,53.6482055,-6.6969502,convenience,Centra,"Commons Road, Navan",Commons Road,Navan,
409804749,node,53.6456051,-6.6930313,houseware,Morans Home Zone,,,,
409804756,node,53.6456102,-6.693659,carpet,Mathews Carpets,Beechmount Industrial Estate,Beechmount Industrial Estate,,
409805122,node,53.6453398,-6.6937458,pet,Equipet,,,,
409805124,node,53.6451663,-6.6942051,furniture,Classic Furniture,,,,
409806597,node,53.6449111,-6.6950063,lighting,Lighting By Gregory Allen,,,,
410224509,node,53.6433288,-6.6971084,fireplace,C & R Fireplaces,,,,
410225272,node,53.6427215,-6.6990699,furniture,Fitzpatrick Furniture,,,,
410228474,node,53.6439546,-6.6983188,furniture,Furniture Design Gallery,,,,
410229248,node,53.6447802,-6.6964248,kitchen,Hogan Kitchens,,,,
410229378,node,53.6452876,-6.6947994,furniture,Royal County Furniture,,,,
410229380,node,53.6454145,-6.6944029,furniture,Flanagan Furniture,,,,
410243386,node,53.6427278,-6.6893191,hairdresser,Hairwaves,,,,
410243388,node,53.642746,-6.6894481,laundry,Launderette,,,,
410243390,node,53.6427858,-6.6895728,dry_cleaning,Dry Cleaners,,,,
410243689,node,53.6481811,-6.6872716,doityourself,Chadwicks Builder Centre,,,,
410250055,node,53.6583156,-6.6858128,convenience,Centra,"Ratholdren Road, Navan",Ratholdren Road,Navan,
410715220,node,53.3615992,-6.1946941,supermarket,Nolan's,Vernon Avenue,Vernon Avenue,,
410916660,node,53.4890068,-10.0213895,books,The Clifden Bookshop,,,,
410992176,node,53.052993,-6.8607065,supermarket,Castlefarm Shop,,,,
412265462,node,53.117178,-7.3272309,supermarket,Costcutter,,,,
414632105,node,53.3620137,-6.5023761,supermarket,Eurospar,"Castletown, Leixlip",Castletown,Leixlip,
414632108,node,53.3620998,-6.5019905,hairdresser,The Saloon,,,,
414650113,node,53.3660286,-6.5036403,convenience,Unknown,,,,
414650116,node,53.3660642,-6.5036956,beauty,The Pink Door,,,,
414659997,node,53.3647908,-6.5174696,supermarket,Eurospar,"Gleneaston, Leixlip",Gleneaston,Leixlip,
417262966,node,53.207716,-8.4778195,car,Noel Turley Auto Sales,,,,
420127921,node,53.1667218,-8.2956005,car,Eddie Lynch Garage,Killimor,,Killimor,
434379754,node,53.3515645,-6.2638088,supermarket,Tesco Metro,"Parnell Street, Dublin",Parnell Street,Dublin,
434379755,node,53.3510902,-6.2632744,supermarket,Lidl,"Moore Street, Dublin",Moore Street,Dublin,
434927240,node,54.6471269,-5.6488681,trade,Unknown,,,,
441233509,node,53.3760919,-6.333061,clothes,Unknown,Ashtown Road,Ashtown Road,,
442392163,node,54.468081,-6.3837931,convenience,Unknown,,,,
445395623,node,54.7243777,-6.1291595,garden_centre,The Landscape Centre,,,,
445513246,node,53.2769122,-6.2183033,convenience,Londis,Blackthorn Road,Blackthorn Road,,
445514567,node,53.2764855,-6.2239388,supermarket,SuperValu,Cedar Road,Cedar Road,,
446302965,node,54.6748107,-5.9874404,convenience,Centra,"Mallusk Road, Mallusk",Mallusk Road,Mallusk,
446781985,node,53.343118,-6.2632917,supermarket,Fallon & Byrne,"11-17, Exchequer Street, Dublin",Exchequer Street,Dublin,
447489890,node,53.4472049,-6.2240307,furniture,EZ Living,"Lakeshore Drive, Swords",Lakeshore Drive,Swords,
447824519,node,53.3705019,-6.2066829,supermarket,SuperValu,"Howth Road, Dublin",Howth Road,Dublin,
450630848,node,53.1500418,-6.0715922,doityourself,Brady's Hardware,,,,
456995794,node,53.4554383,-6.1801674,convenience,Centra,"Old Yellow Walls Road, Malahide",Old Yellow Walls Road,Malahide,
458220906,node,53.2816852,-6.3403519,hairdresser,Hair by Suzanne,,,,
458220907,node,53.2816493,-6.3404123,butcher,Redmond's Butchers,,,,
458220909,node,53.2813028,-6.3417058,dry_cleaning,Capricorn Dry Cleaners & Laundrette,Firhouse Shopping Centre,Firhouse Shopping Centre,,
458220910,node,53.2812615,-6.3415772,bookmaker,Tom Flood Bookmaker,Firhouse Shopping Centre,Firhouse Shopping Centre,,
460836932,node,53.3465617,-6.2793912,laundry,Mr. Tubs,"37, Arran Quay, Dublin",Arran Quay,Dublin,
462381475,node,54.4649708,-6.2607848,convenience,Unknown,,,,
462913323,node,54.5041077,-8.1904659,convenience,Spar,Ballyshannon,,Ballyshannon,
463710869,node,53.2510477,-6.8401635,vacant,Unknown,,,,
463710878,node,53.2505091,-6.8403021,convenience,Gala,Kilmeague,,Kilmeague,
463710882,node,53.2503771,-6.8404974,butcher,Colm Coffey's,,,,
464770414,node,53.2394587,-6.8552818,convenience,Mulrennans,,,,
467744850,node,53.345895,-6.2594282,clothes,Weavers of Ireland,"9, Westmoreland Street, Dublin",Westmoreland Street,Dublin,
467744892,node,53.3591183,-6.2591207,alcohol,Carolan's,,,,
467744894,node,53.3589601,-6.2577928,dry_cleaning,The Laundry Room,,,,
467744912,node,53.3574591,-6.2510679,electronics,Dublin Electrical Wholesalers Ltd.,,,,
469614985,node,54.594855,-5.8552307,tea,S.D. Bell & Co Ltd,,,,
469892143,node,53.2838014,-6.3773271,doityourself,Woodie's,,,,
470326863,node,53.3542552,-6.2572003,convenience,Spar,"Gardiner Street Middle, Dublin",Gardiner Street Middle,Dublin,
470326920,node,53.3505171,-6.2656528,supermarket,ALDI,"38-41, Parnell Street, Dublin",Parnell Street,Dublin,
470326939,node,53.3536376,-6.2594155,alcohol,Bevvie's,"144, Parnell Street, Dublin",Parnell Street,Dublin,
471773797,node,53.3214482,-6.2348989,convenience,Spar,"54-56, Donnybrook Road, Dublin",Donnybrook Road,Dublin,
472134566,node,53.3213854,-6.2353463,vacant,Unknown,Donnybrook Road,Donnybrook Road,,
472767309,node,53.358953,-6.2459517,alcohol,The Vine Tree,"82, Ballybough Road, Dublin",Ballybough Road,Dublin,
472767316,node,53.3570098,-6.2500263,laundry,Unknown,,,,
472965093,node,53.3955501,-6.4395662,supermarket,Dunnes Stores,"Main Street, Ongar",Main Street,Ongar,
474728394,node,53.2662311,-6.160201,department_store,Dunnes Stores,"Bray Road, Foxrock, D18 C7W7",Bray Road,Foxrock,D18 C7W7
474736528,node,53.262152,-6.1617779,convenience,Tesco Express,,,,
476009008,node,53.2510248,-6.8395656,bookmaker,Cill Dara Betting,"Kilmeague, Naas",Kilmeague,Naas,
476907879,node,53.2051014,-6.8607516,convenience,David's,,,,
479100381,node,53.3446387,-6.2672615,convenience,Spar,"10, Parliament Street, Dublin",Parliament Street,Dublin,
479986267,node,53.581432,-6.1351654,supermarket,Eurospar,,,,
480606959,node,53.3512272,-6.2637597,convenience,Centra,"Parnell Street, Dublin",Parnell Street,Dublin,
482112992,node,53.3886868,-6.1671502,supermarket,Tesco,"Grange Park Avenue, Dublin",Grange Park Avenue,Dublin,
486677660,node,53.5242249,-6.173997,convenience,Centra,"Dun Emer Avenue, Lusk",Dun Emer Avenue,Lusk,
486683288,node,53.5262518,-6.1642919,supermarket,SuperValu,"Station Road, Lusk",Station Road,Lusk,
493042377,node,53.3545831,-6.256981,dry_cleaning,Gardiner Street Dry Cleaners,"Gardiner Street Middle, Dublin",Gardiner Street Middle,Dublin,
494210271,node,53.7141859,-6.3481064,bicycle,Quay Cycles,,,,
497022974,node,53.3255868,-6.2648824,bicycle,Thinkbike,"Rathmines Road Lower, Dublin",Rathmines Road Lower,Dublin,
497022977,node,53.3274636,-6.2774379,bicycle,Life in Motion,"48a, Harold's Cross Road, Dublin",Harold's Cross Road,Dublin,
497022993,node,53.3357556,-6.2654533,bicycle,Penny Farthing Cycles,"81-82, Camden Street Lower, Dublin",Camden Street Lower,Dublin,
503224344,node,53.3406175,-6.2658406,convenience,Costcutter,"Aungier Street, Dublin",Aungier Street,Dublin,
504985175,node,53.2762809,-6.2243161,convenience,Unknown,Cedar Road,Cedar Road,,
504988941,node,53.270065,-6.2247746,hairdresser,The Sitting Room,,,,
506821597,node,53.3565948,-6.4507068,convenience,Centra,"Main Street, Lucan",Main Street,Lucan,
506835403,node,53.3436432,-6.5444401,butcher,Fitzpatrick Butchers,,,,
507962496,node,53.2775076,-6.2649649,supermarket,Lidl,Grange Road,Grange Road,,
508080564,node,54.5906282,-5.9231436,convenience,Mace Express,,,,
508336667,node,53.2994717,-6.2193534,car,Mount Merrion Cars,Dublin,,Dublin,
512531380,node,53.3247177,-6.2416164,motorcycle,GEM Motorcycle Workshop,"Rear 63, Morehampton Road",Morehampton Road,,
516148390,node,53.3390336,-6.3077547,vacant,Unknown,"47, Suir Road",Suir Road,,
518893601,node,53.3469287,-6.2822456,supermarket,Spar,"14-17, Ellis Quay, Dublin",Ellis Quay,Dublin,
519008594,node,54.5788903,-5.9513983,travel_agency,McNeill Worldwide,"421, Lisburn Road, Belfast, BT9 7EW",Lisburn Road,Belfast,BT9 7EW
519008595,node,54.5788722,-5.9514263,travel_agency,Ski McNeill,"421, Lisburn Road, Belfast, BT9 7EW",Lisburn Road,Belfast,BT9 7EW
522642589,node,53.3436507,-6.5443226,hairdresser,Hubu Salon,,,,
528235797,node,53.3519961,-6.4620828,convenience,Spar,,,,
528235803,node,53.3415263,-6.4516033,convenience,Spar,,,,
529594491,node,55.0457475,-7.2738473,convenience,Centra,Culmore Road,Culmore Road,,
530634588,node,53.3825688,-6.5891059,clothes,Moulin Rouge,,,,
534397998,node,54.1921632,-6.349226,doityourself,B&Q,,,,
535292100,node,53.2776693,-6.2109884,dry_cleaning,Unknown,Ballymoss Road,Ballymoss Road,,
539137657,node,53.4104945,-6.3567434,computer,Mactivate,Unit 13,,,
539504041,node,54.7542441,-6.6106946,department_store,Dunnes Stores,"Moneymore Road, Magherafelt, BT45 6PR",Moneymore Road,Magherafelt,BT45 6PR
540023004,node,54.6472727,-5.7247623,garden_centre,Unknown,,,,
540023006,node,54.6588107,-5.703649,convenience,Spar,,,,
541650329,node,53.116147,-9.1480711,supermarket,Spar,,,,
543386153,node,55.000517,-7.3216415,supermarket,Tesco,"42, Strand Road, Londonderry, BT48 7PX",Strand Road,Londonderry,BT48 7PX
546744007,node,53.4582557,-6.3498412,convenience,May's Newsagents,,,,
548060985,node,53.2477999,-6.5958495,convenience,Esso On The Run,,,,
549665002,node,53.3440194,-6.2646888,convenience,Spar,"21, Dame Street, Dublin",Dame Street,Dublin,
549666011,node,53.3543481,-6.2572583,greengrocer,Tops in Pops,"2, Gardiner Street Middle, Dublin",Gardiner Street Middle,Dublin,
550381054,node,53.4523706,-6.1541153,convenience,Tesco Express,Malahide,,Malahide,
550381057,node,53.4507706,-6.1540022,convenience,Mace,,,,
553535053,node,53.0298962,-7.2965199,department_store,TK Maxx,Kylekiproe Road,Kylekiproe Road,,
553535068,node,53.0299349,-7.2955138,sports,Elverys Sports,Kylekiproe Road,Kylekiproe Road,,
559162555,node,53.4286454,-6.3746235,convenience,Spar,"Ratoath Road, Dublin",Ratoath Road,Dublin,
559854617,node,53.3436458,-6.2642558,bakery,Krust Bakery,"5, George's Street Great South, Dublin",George's Street Great South,Dublin,
560070371,node,53.0031037,-6.9506986,furniture,Athy Furniture and Beds Galore,,,,
560085322,node,53.3243625,-6.3393737,bicycle;baby_goods,Eurocycles;Eurobaby,"1, Long Mile Road, Dublin, D12 F768",Long Mile Road,Dublin,D12 F768
560114632,node,54.5523207,-6.0003449,supermarket,Tesco,"Kingsway, Belfast",Kingsway,Belfast,
560470677,node,53.3510431,-6.2519174,hardware,O'Brien's Hardware,"66, Talbot Street, Dublin",Talbot Street,Dublin,
560623704,node,53.6061422,-6.1769804,convenience,Londis,Hampton Street,Hampton Street,,
561234336,node,53.350908,-6.2527408,books,Bookmart & Gamexchange,"73, Talbot Street",Talbot Street,,
561234337,node,53.3509823,-6.2522855,bookmaker,Paddy Power,"69, Talbot Street, Dublin",Talbot Street,Dublin,
562072093,node,53.3506874,-6.2528408,hairdresser,Jack's Barber,"7A, Store Street, Dublin",Store Street,Dublin,
564076265,node,53.3252812,-6.2554094,beauty,SISU Clinic,"3, Fields Terrace, Dublin",Fields Terrace,Dublin,
564076271,node,53.3248657,-6.2555645,health_food,Bodyfirst Nutrition,"51, Cullenswood Road, Dublin",Cullenswood Road,Dublin,
564076279,node,53.325339,-6.2547517,bookmaker,Paddy Power,"Ranelagh, Dublin",Ranelagh,Dublin,
564118831,node,53.3255762,-6.2554672,alcohol,Redmonds,"Ranelagh, Dublin",Ranelagh,Dublin,
564118857,node,53.3258912,-6.2557607,hifi,Sound Hire,"Ranelagh, Dublin",Ranelagh,Dublin,
564118862,node,53.3260409,-6.2558863,locksmith,Locksmiths.ie,"Ranelagh, Dublin",Ranelagh,Dublin,
564118865,node,53.3260638,-6.2559183,bicycle,Cycles.ie,"Ranelagh, Dublin",Ranelagh,Dublin,
564399658,node,53.3288639,-6.2618045,car_repair,Kelly's Garage,Dublin,,Dublin,
564399678,node,53.3296454,-6.2603842,car_repair,Hopkins and Lockheart Crash Repair,"Athlumney Villas, Dublin",Athlumney Villas,Dublin,
564413744,node,53.3222148,-6.2658402,3d_printing,3D Printing Dublin,"215, Rathmines Road Lower, Dublin",Rathmines Road Lower,Dublin,
564413747,node,53.3222765,-6.265829,interior_decoration,April and the Bear,"213, Rathmines Road Lower, Dublin",Rathmines Road Lower,Dublin,
564453102,node,53.3208633,-6.2656653,electronics,Fix My Tech,"35, Rathmines Road Upper",Rathmines Road Upper,,
564926459,node,53.3157666,-6.2652815,convenience,Tesco Express,"167, Rathmines Road Upper, Dublin",Rathmines Road Upper,Dublin,
564926472,node,53.3161623,-6.2654113,food,Fresh & Wild,"151, Rathmines Road Upper, Dublin",Rathmines Road Upper,Dublin,
564926473,node,53.3162071,-6.2654202,alcohol,O'Briens,"149, Rathmines Road Upper, Dublin",Rathmines Road Upper,Dublin,
564926478,node,53.3163329,-6.2654123,butcher,Lawlor's Butchers,"143,145, Rathmines Road Upper, Dublin",Rathmines Road Upper,Dublin,
564926482,node,53.3163902,-6.2654123,bakery,Fothergill's Delicatessen,"141, Rathmines Road Upper, Dublin",Rathmines Road Upper,Dublin,
564926483,node,53.3164446,-6.2654103,yes,Morgans,"139, Rathmines Road Upper, Dublin",Rathmines Road Upper,Dublin,
564926484,node,53.3164959,-6.2654034,hairdresser,Kuts and Kurls,"137, Rathmines Road Upper, Dublin",Rathmines Road Upper,Dublin,
564926485,node,53.3165556,-6.2653915,seafood,Connolly's Fish Company,"135, Rathmines Road Upper, Dublin",Rathmines Road Upper,Dublin,
565063580,node,53.320177,-6.2635675,car,John Hayes Cars,"6-8, Church Avenue, Dublin",Church Avenue,Dublin,
565712798,node,53.3241854,-6.2534995,interior_decoration,Form & Line,"63, Beechwood Avenue Lower, Dublin",Beechwood Avenue Lower,Dublin,
565736691,node,53.3212688,-6.2550694,dry_cleaning,Keegans,"4, Dunville Avenue, Dublin",Dunville Avenue,Dublin,
565749700,node,53.3209982,-6.2566805,laundry,Xpert Laundry & Dry Cleaners,"27, Dunville Avenue, Dublin",Dunville Avenue,Dublin,
565762529,node,53.3244064,-6.2526025,hairdresser,Headcases,Ranelagh,Ranelagh,,
565762533,node,53.3243263,-6.2529678,wedding,The Wedding Shop,Ranelagh,Ranelagh,,
567713119,node,53.3436128,-6.2646714,charity,Oxfam,"South Great George's Street, Dublin",South Great George's Street,Dublin,
567736390,node,53.3449737,-6.266629,ticket,Dublin Theatre Festival,"44, Essex Street East, Dublin",Essex Street East,Dublin,
568036487,node,53.2732383,-8.9295314,supermarket,SuperValu,"Station Road, Oranmore",Station Road,Oranmore,
569970407,node,53.2030055,-6.0988592,convenience,Campo de Fiori Risto Market,"1, Albert Avenue",Albert Avenue,,
570523041,node,54.5969832,-5.9329253,convenience,Centra,"Wellington Place, Belfast",Wellington Place,Belfast,
570523044,node,54.5964227,-5.9322525,clothes,Envoy,,,,
570523045,node,54.5964257,-5.9321732,clothes,Yoke,,,,
570523046,node,54.5964182,-5.9323714,gift,Coppermoon,"3, Wellington Street, Belfast",Wellington Street,Belfast,
570523061,node,54.5967682,-5.9317268,convenience,Centra,"5-6, Donegall Square West, Belfast, BT1 6JA",Donegall Square West,Belfast,BT1 6JA
574814150,node,53.4448133,-6.2439371,convenience,Tesco Express,"Ridgewood Grove, Swords",Ridgewood Grove,Swords,
576099238,node,53.3335062,-6.2415014,beauty,Beauty Bar,,,,
576115962,node,53.308518,-6.2272061,kiosk,Students' Union Shop,Dublin,,Dublin,
576619734,node,53.3300884,-6.2320897,jewelry,Bridge Jewellers,"Shelbourne Road, Dublin",Shelbourne Road,Dublin,
576619762,node,53.330467,-6.2320771,hairdresser,Trim,"Shelbourne Road, Dublin",Shelbourne Road,Dublin,
577925031,node,53.3839221,-6.4019918,car,Unknown,,,,
579036415,node,54.5859502,-5.936322,window_blind,Bloc Blinds,,,,
581596659,node,53.3541937,-6.2448702,car_repair,Arch Motors,"Seville Terrace, Dublin",Seville Terrace,Dublin,
581596662,node,53.3542669,-6.2447499,car_repair,Seville Motors,"Seville Terrace, Dublin",Seville Terrace,Dublin,
582754944,node,53.3508594,-6.2656271,supermarket,International Supermarket,,,,
583256888,node,53.3373609,-6.2728113,convenience,Spar,New Street South,New Street South,,
583383800,node,53.3225555,-6.279115,convenience,Centra,"197, Harold's Cross Road, Dublin",Harold's Cross Road,Dublin,
595561961,node,53.4048801,-6.1784077,supermarket,Spar,,,,
597697553,node,53.3406933,-6.4322171,convenience,Centra,"Griffeen Centre, Lucan",Griffeen Centre,Lucan,
597822594,node,53.4029973,-6.1569486,convenience,Centra,"Main Street, Dublin",Main Street,Dublin,
598519964,node,53.2867091,-6.1219305,convenience,Centra,Glasthule Road,Glasthule Road,,
598552822,node,53.2795117,-6.1349271,convenience,Spar,"Glenageary Shopping Centre, A96 W966",Glenageary Shopping Centre,,A96 W966
599088758,node,53.0287853,-7.2892568,doityourself,Homebase,"Southern Circular Road, Portlaoise",Southern Circular Road,Portlaoise,
600075371,node,54.5905919,-5.9052138,convenience,Newstop,,,,
600583552,node,54.02037,-9.1759556,convenience,Day-Today,,,,
603799484,node,53.2584816,-6.1979944,convenience,Spar,,,,
606181804,node,53.3409996,-6.2452191,convenience,Gala,"18, Holles Street, Dublin",Holles Street,Dublin,
610843615,node,53.2928036,-6.1392277,supermarket,Tesco,"Convent Lane, Dún Laoghaire",Convent Lane,Dún Laoghaire,
611634909,node,53.3510361,-6.5452228,convenience,Unknown,,,,
611646488,node,53.245914,-6.6646251,hairdresser,Unknown,"The Waterways, Sallins",The Waterways,Sallins,
611691484,node,53.2468545,-6.6622745,supermarket,SuperValu,Sallins,,Sallins,
611691517,node,53.2457628,-6.6648939,laundry,Jackson's Dry-Cleaners,"The Waterways, Sallins",The Waterways,Sallins,
612459474,node,53.2193374,-6.6611139,supermarket,Spar,,,,
612976509,node,53.3133201,-6.2466048,convenience,EUROSPAR,,,,
615216190,node,53.1809677,-6.7966139,bakery,Bradbury's,"Main Street, Newbridge",Main Street,Newbridge,
616036097,node,53.3506283,-6.2817777,convenience,Centra,"8-12, Stoneybatter, Dublin",Stoneybatter,Dublin,
616043040,node,53.3390557,-6.2722779,convenience,Spar,"52-53, Patrick Street, Dublin",Patrick Street,Dublin,
616479704,node,53.3359339,-6.2570563,convenience,Chapter and Verse,"1-2, Leeson Street Lower, Dublin",Leeson Street Lower,Dublin,
616479717,node,53.335971,-6.2566951,newsagent,101 News,"101, Leeson Street Lower, Dublin",Leeson Street Lower,Dublin,
619801062,node,53.5399218,-7.3437024,car,Toyota,,,,
619801064,node,53.540341,-7.3443353,car,Nissan,,,,
619801085,node,53.5424761,-7.3427926,car,Colton Ford,,,,
627441512,node,54.4662143,-8.4492039,supermarket,Paddy's,,,,
627508592,node,53.5255045,-7.3193025,car,Midland Honda Centre,,,,
627575495,node,53.5255903,-7.3307624,car,Birmingham Motors,,,,
627575496,node,53.525646,-7.3331651,car,Mullingar Autos,,,,
629026533,node,53.3816282,-6.5949719,florist,Maynooth Flowers,,,,
629026534,node,53.3816584,-6.5949948,hairdresser,Zeba Hairdresing,,,,
629026537,node,53.3815869,-6.5947321,vacant,Manor Mills Shopping Centre,"Mill Street, Maynooth",Mill Street,Maynooth,
629026539,node,53.3816856,-6.5946803,hairdresser,Boston Barber Bars,,,,
629026541,node,53.3816442,-6.5946612,mobile_phone,3 Store,,,,
629026542,node,53.381731,-6.5945472,clothes,NAME IT,,,,
629026543,node,53.3815942,-6.5948382,ice_cream,Scooples,,,,
630730533,node,53.3538432,-6.2614694,art,RedSpace/The Joy Gallery,"Rutland Place, Dublin",Rutland Place,Dublin,
631737823,node,54.5951076,-5.9342079,convenience,Spar,,,,
631800239,node,54.5647025,-5.9101469,supermarket,Sainsbury's,,,,
631822364,node,53.3456679,-6.2625922,fishing,Rory's Fishing Tackle,"Temple Bar, Dublin",Temple Bar,Dublin,
631980911,node,53.3468307,-6.2653484,hairdresser,Carlos Barber,"Great Strand Street, Dublin",Great Strand Street,Dublin,
631980968,node,53.346876,-6.2650658,supermarket,Han Sung Asian Market,"Great Strand Street, Dublin",Great Strand Street,Dublin,
632564177,node,53.3499784,-6.2743802,convenience,Daybreak,"North King Street, Dublin",North King Street,Dublin,
632915094,node,53.3419308,-6.4233959,convenience,Centra,"Foxborough Road, Lucan",Foxborough Road,Lucan,
632948575,node,53.3444931,-6.2492507,yes,Nichols,"Lombard Street East, Dublin",Lombard Street East,Dublin,
633611975,node,53.3428568,-6.261027,hairdresser,The Natural Cut,"33-34, Wicklow Street, Dublin",Wicklow Street,Dublin,
633771690,node,53.3476545,-6.4527998,clothes,Dunnes Stores,,,,
635247454,node,53.3509259,-6.5459549,butcher,Byrne's,,,,
635247461,node,53.350969,-6.545846,convenience,Daybreak,"Willowbrook Road, Celbridge",Willowbrook Road,Celbridge,
635273555,node,53.3509894,-6.2703826,convenience,Centra,"4,6, North King Street, Dublin",North King Street,Dublin,
636996282,node,53.3780802,-6.5906478,kiosk,Platform 1,,,,
638364570,node,53.4710629,-6.2320859,alcohol,Coolers Off Licence,,,,
638364589,node,53.4706729,-6.2315436,dry_cleaning,Chic Dry Cleaners,,,,
638364604,node,53.4707947,-6.2320058,butcher,Hannigans,,,,
638979326,node,53.1447767,-7.273248,car,Michael Moore Car Sales,,,,
639076143,node,53.470915,-6.2328181,bakery,La Boulangerie Francaise,,,,
639076150,node,53.4710419,-6.2319461,bookmaker,BoyleSports,"Applewood Main Street, Swords",Applewood Main Street,Swords,
639839999,node,53.3617744,-6.2725211,convenience,Daybreak,"Phibsborough Road, Dublin",Phibsborough Road,Dublin,
639845339,node,53.3632104,-6.2725485,alcohol,Fagan's,"99, Phibsborough Road, Dublin",Phibsborough Road,Dublin,
639846205,node,53.3706591,-6.2682696,chemist,Reddy's,"167, Saint Mobhi Road, Dublin",Saint Mobhi Road,Dublin,
639848073,node,53.3726636,-6.2683159,convenience,Unknown,,,,
639849487,node,53.3684612,-6.2592041,hairdresser,The B Club,,,,
640564696,node,53.3636822,-6.4902113,convenience,Spar,,,,
640764973,node,53.3646911,-6.4880562,bakery,Imperial,,,,
640767598,node,53.3642764,-6.4884849,beauty,Katy American-Style Nail & Spa,,,,
640771938,node,53.3660197,-6.5034539,bookmaker,Paddy Power,,,,
640776117,node,53.4054387,-6.3785934,convenience,Unknown,Blanchardstown,,Blanchardstown,
641814089,node,53.3586024,-6.4479451,bicycle,Stag Bicycles,,,,
642426233,node,53.3422665,-6.2554468,department_store,Kilkenny Design,"6, Nassau Street, Dublin",Nassau Street,Dublin,
643932896,node,53.3553246,-6.510038,beverages,Deli Marche,,,,
644007148,node,53.3637693,-6.4904735,butcher,Wakins Butcher,,,,
644027170,node,53.3799751,-6.5829611,clothes,Next,,,,
644027172,node,53.3800225,-6.5822657,sports,Sports Direct,,,,
644688377,node,53.3707388,-6.2681747,laundry,Ascot Cleaners,"Saint Mobhi Road, Dublin",Saint Mobhi Road,Dublin,
644739980,node,53.3902236,-6.2977539,convenience,Unknown,,,,
646869831,node,53.3312256,-6.2610005,convenience,Centra,"Charlemont Street, Dublin",Charlemont Street,Dublin,
646873365,node,53.3362914,-6.2651967,supermarket,Fresh,"1-4, Camden Street Lower",Camden Street Lower,,
647131327,node,53.2934085,-6.3718709,doityourself,B&Q,"Belgard Road, Tallaght",Belgard Road,Tallaght,
647131332,node,53.2932204,-6.3709184,variety_store,Dealz,"Belgard Road, Tallaght",Belgard Road,Tallaght,
647131335,node,53.2932707,-6.3704366,houseware,Home Store + More,"Belgard Road, Tallaght",Belgard Road,Tallaght,
648004328,node,53.3243294,-6.2403023,supermarket,Donnybrook Fair,"87-91, Morehampton Road, Dublin",Morehampton Road,Dublin,
648065848,node,53.2870131,-6.1221416,wine,Mitchell & Son Wine Merchants,"54, Glasthule Road",Glasthule Road,,
650177740,node,53.3683144,-6.259699,doityourself,Botanic Building Supplies Ltd,,,,
650181866,node,53.3660501,-6.2716613,florist,Unknown,,,,
650230745,node,53.3488477,-6.2668741,toys,Banba Toymaster,"Mary Street, Dublin",Mary Street,Dublin,
650350407,node,53.3558828,-6.2648641,doityourself,Unknown,"North Frederick Street, Dublin",North Frederick Street,Dublin,
650350878,node,53.3560626,-6.2649656,computer,Castle Computers,,,,
653265786,node,53.3410234,-6.4113685,car_repair,Quick Pit Tyres,,,,
653282288,node,53.340815,-6.4321313,bookmaker,Bambury,,,,
653284550,node,53.3403504,-6.4323815,hairdresser,House of Colour,,,,
654042897,node,53.3323551,-6.2156319,convenience,Mace,,,,
656152403,node,53.0511902,-7.2563218,garden_centre,Hawthorn Nurseries,,,,
658492244,node,53.2898833,-6.1307153,hairdresser,Fusion,"53a, Georges Street Upper",Georges Street Upper,,
658492246,node,53.2898164,-6.1305591,clothes,The Little Wooden Peg,"55, Georges Street Upper, Dún Laoghaire, A96 DK26",Georges Street Upper,Dún Laoghaire,A96 DK26
658492250,node,53.289737,-6.1303737,glaziery,Go Glaze,"57, Georges Street Upper, Dún Laoghaire",Georges Street Upper,Dún Laoghaire,
658492254,node,53.2900726,-6.1311573,e-cigarette,Cigatec,"48, Georges Street Upper, Dún Laoghaire",Georges Street Upper,Dún Laoghaire,
658492257,node,53.2900404,-6.1310821,charity,Vincent's,"49, Georges Street Upper, Dún Laoghaire, A96 T6Y3",Georges Street Upper,Dún Laoghaire,A96 T6Y3
658492278,node,53.2899486,-6.1304181,funeral_directors,Sheahans Funeral Home,"71, Georges Street Upper, Dún Laoghaire, A96 CT95",Georges Street Upper,Dún Laoghaire,A96 CT95
658492285,node,53.2899399,-6.1308475,beauty,New YorKi Nails,"52, Georges Street Upper, Dún Laoghaire",Georges Street Upper,Dún Laoghaire,
658492358,node,53.2895186,-6.1298638,hairdresser,Conlemany by Organic Italian Hairdressing,"64a, Georges Street Upper, Dún Laoghaire, A96 VK02",Georges Street Upper,Dún Laoghaire,A96 VK02
658492363,node,53.2896717,-6.1302391,tailor,The Zipyard,"59, Georges Street Upper, Dún Laoghaire",Georges Street Upper,Dún Laoghaire,
658492370,node,53.2898649,-6.1302253,interior_decoration,Sahara,"69c, Georges Street Upper, Dún Laoghaire",Georges Street Upper,Dún Laoghaire,
658492389,node,53.2896147,-6.1296488,vacant,Unknown,"65, Georges Street Upper, Dún Laoghaire",Georges Street Upper,Dún Laoghaire,
658492395,node,53.2897084,-6.1298647,vacant,Costal Living Interiors,"67, Georges Street Upper, Dún Laoghaire, A96 YR91",Georges Street Upper,Dún Laoghaire,A96 YR91
658999939,node,53.4030283,-6.3984051,convenience,Spar,Old Navan Road,Old Navan Road,,
659713029,node,53.6134124,-10.214585,bicycle,Unknown,,,,
659713708,node,53.5500923,-9.9678043,gift,Avoca,,,,
659717002,node,53.7990726,-9.5452464,convenience,Centra,Westport Harbour,,Westport Harbour,
659777685,node,53.3323643,-6.2147271,bicycle,2wheels.ie,"Sandymount Green, Dublin",Sandymount Green,Dublin,
659793145,node,53.5531236,-9.9496059,convenience,Letterfrack country shop,,,,
659803043,node,53.2895892,-6.2676612,supermarket,Tesco,Nutgrove Way,Nutgrove Way,,
660192815,node,53.3692632,-6.2544402,convenience,Thunder's Bakery,"16, Drumcondra Road Upper, Dublin",Drumcondra Road Upper,Dublin,
660265814,node,53.3123358,-6.2827002,sports,Mick Dowling,"66, Terenure Road North, Dublin",Terenure Road North,Dublin,
660698794,node,53.3221087,-6.23603,alcohol,O'Briens,"Donnybrook Road, Dublin",Donnybrook Road,Dublin,
660803969,node,55.2004096,-6.2528642,convenience,ViVO,"Castle Street, Ballycastle",Castle Street,Ballycastle,
661075936,node,55.2006924,-6.2598243,supermarket,Eurospar,"6, Ramoan Road, Ballycastle, BT54 6EG",Ramoan Road,Ballycastle,BT54 6EG
662301991,node,53.2810508,-6.3411217,supermarket,SuperValu,Ballycullen Avenue,Ballycullen Avenue,,
662617576,node,53.403269,-6.8512111,convenience,Johnstownbridge Service Station,,,,
662816466,node,53.3900999,-6.5673202,sports,Carton House,,,,
662969432,node,53.361021,-6.2729129,bakery,Thunder's,"Phibsborough Road, Dublin",Phibsborough Road,Dublin,
662981991,node,53.3501116,-6.2511707,convenience,Link Express,Store Street,Store Street,,
662996234,node,54.2658306,-8.4721571,convenience,Applegreen,,,,
663222342,node,53.2741892,-7.4943373,supermarket,Dunnes Stores,,,,
663337120,node,53.2739951,-7.4982018,supermarket,Lidl,"Main Street, Tullamore",Main Street,Tullamore,
663570747,node,54.263238,-8.4684287,convenience,Christies,,,,
663748238,node,53.6677414,-8.9559677,convenience,Costcutter,"Galway Road, Ballindine",Galway Road,Ballindine,
663748241,node,53.7249956,-8.9987361,supermarket,Tesco,,,,
663819336,node,53.3609821,-6.2729097,charity,Oxfam,"Phibsborough Road, Dublin",Phibsborough Road,Dublin,
663886325,node,53.0009313,-7.474327,supermarket,Spar,Mountrath,,Mountrath,
664033266,node,53.348686,-6.2586157,books,Veritas Bookshop,"7-8, Abbey Street Lower, D01 W2C2",Abbey Street Lower,,D01 W2C2
664126417,node,53.3646549,-6.4884913,stationery,Tuthils of Leixlip,,,,
664126418,node,53.3648641,-6.4885068,florist,Leixlip Flower shop,,,,
664126420,node,53.3649722,-6.4885012,clothes,Fashion Corner,,,,
664126423,node,53.3651146,-6.4884973,hairdresser,Head First,,,,
664126424,node,53.3649625,-6.4881228,dry_cleaning,Captain's Cleaner,,,,
664132892,node,53.3639276,-6.4876425,convenience,Healthy Way,"Ralph Square, Leixlip",Ralph Square,Leixlip,
664134254,node,53.3642523,-6.4876096,clothes,O'Hagan Fashion,,,,
664134256,node,53.3642906,-6.4874467,doityourself,Like-NU,,,,
664134261,node,53.3640621,-6.4858418,hairdresser,Barber,,,,
664135381,node,53.3644208,-6.4865082,convenience,Royal Evergreen Trading,,,,
664449850,node,54.1914136,-6.3484091,car_parts,Halfords,,,,
664450747,node,53.3462942,-6.2825603,motorcycle,Scooter Island,"11, Usher's Island",Usher's Island,,
664490914,node,53.2793785,-6.4454047,supermarket,Dunnes Stores,,,,
664490919,node,53.279775,-6.4452046,florist,CityWest Florist,,,,
664810672,node,53.3593978,-6.2591066,convenience,Belvedere Stores,,,,
665822801,node,53.3292199,-6.2755789,convenience,Daybreak,"Harold's Cross Road, Dublin",Harold's Cross Road,Dublin,
666140728,node,53.7068842,-6.35343,convenience,John's Shop,,,,
667886886,node,53.2753021,-6.137795,beauty,Lavish Nail Spa & Beauty,"10, Church Place, Sallynoggin, A96 E8V0",Church Place,Sallynoggin,A96 E8V0
672810746,node,53.1810982,-6.7963613,video,Xtra-Vision,"Main Street, Newbridge",Main Street,Newbridge,
673005621,node,53.210715,-6.6526698,convenience,Centra,"Ballycane Road, Naas",Ballycane Road,Naas,
674208258,node,53.3324944,-6.4556032,convenience,Mace,"Adamstown Road, K78 X4E1",Adamstown Road,,K78 X4E1
676042481,node,53.3447344,-6.2642547,bicycle,SquareWheel Cycleworks,,,,
676292598,node,53.1750104,-6.8024485,supermarket,Dunnes Stores,Newbridge,,Newbridge,
677596880,node,53.3399449,-6.2614642,clothes,ASHA,"St. Stephen's Green, Dublin",St. Stephen's Green,Dublin,
681455215,node,53.3530071,-6.3910822,doityourself,Unknown,,,,
681464762,node,53.3540819,-6.3882986,department_store,Marks & Spencer,,,,
681465300,node,53.3542273,-6.3879541,supermarket,M&S Foodhall,,,,
681467039,node,53.3501894,-6.379935,supermarket,SuperValu,"Kennelsfort Road Upper, Dublin",Kennelsfort Road Upper,Dublin,
681475030,node,53.3494872,-6.344821,convenience,Spar,,,,
681742375,node,53.3989047,-6.2432347,convenience,Centra,"Coolock Lane, Dublin, D09 X6X4",Coolock Lane,Dublin,D09 X6X4
683113636,node,53.3051852,-6.2368511,supermarket,Spar,Gledswood Drive,Gledswood Drive,,
683132043,node,53.2984302,-6.2368281,convenience,Lynam's,Farmhill Road,Farmhill Road,,
683132047,node,53.3023144,-6.2448612,convenience,Costcutter,Dundrum Road,Dundrum Road,,
687781562,node,53.4336232,-6.4661145,car_repair,Unknown,,,,
688832909,node,55.1076405,-6.421266,convenience,Spar,"Main Street, Stranocum",Main Street,Stranocum,
688912012,node,53.3706478,-6.2684237,convenience,McGroarty's,"Botanic Road, Dublin",Botanic Road,Dublin,
689384933,node,53.3602045,-6.2725553,bicycle,Rothar,"171, Phibsborough Road, Dublin",Phibsborough Road,Dublin,
689464974,node,53.4935203,-6.1115111,convenience,Grogan's Shop,,,,
689479301,node,53.4867927,-6.1488968,supermarket,SuperValu,"Main Street, Donabate",Main Street,Donabate,
689479359,node,53.4924149,-6.135822,convenience,Back Again,5,,,
690995697,node,53.2123865,-6.6671133,car_repair,BestDrive,,,,
695656503,node,53.3898036,-6.5987331,vacant,The Village shop,,,,
697340047,node,53.5770703,-7.7892032,car,Peter Hanley,,,,
698087516,node,53.358427,-6.2735751,vacant,Unknown,"Phibsborough Road, Dublin",Phibsborough Road,Dublin,
698655667,node,53.3426214,-6.2609577,photo,Conn's Cameras,"54, Clarendon Street, Dublin",Clarendon Street,Dublin,
699720662,node,53.1013971,-9.2975499,convenience,Siopa Fán Oir,,,,
699884958,node,53.3571416,-6.2740052,car_repair,Myles Balfe Ltd,"Phibsborough Road, Dublin",Phibsborough Road,Dublin,
700268032,node,53.2101969,-6.7012967,car_parts,Halfords,,,,
700908256,node,54.2372912,-6.1660513,supermarket,Milestone Service Station,,,,
700918135,node,53.2093668,-6.7028993,department_store,Harvey Norman,,,,
700918136,node,53.2098376,-6.701873,electronics,Currys,,,,
701590151,node,53.2133699,-6.6992277,beauty,Flair Beauty bag,Unit D4,,,
701590152,node,53.213396,-6.6995319,dry_cleaning,Sunny,Unit D8,,,
703177482,node,54.3476647,-6.2707231,bakery,Burnett's Home Bakery,,,,
704411757,node,53.2515427,-6.8411436,hairdresser,Talking Heads,,,,
704768509,node,53.1960386,-7.6288932,convenience,Brackens Shop,,,,
706180236,node,53.3256786,-6.2652818,supermarket,Lidl,"Rathmines Road Lower, Dublin",Rathmines Road Lower,Dublin,
708693173,node,53.4452229,-6.210009,convenience,Spar,,,,
708742985,node,53.2706459,-6.816955,convenience,Unknown,,,,
710676597,node,53.4337219,-6.1247786,convenience,Spar,,,,
715791728,node,53.1755369,-6.8017718,department_store,Homestore and More,"Unit 4-7, Newbridge Retail Park, Newbridge",Newbridge Retail Park,Newbridge,
715791734,node,53.1762127,-6.8019229,electronics,DID Electrical,"Unit 8-9, Newbridge Retail Park, Newbridge",Newbridge Retail Park,Newbridge,
715791738,node,53.1760567,-6.8012778,vacant,Unknown,"Unit 10, Newbridge Retail Park, Newbridge",Newbridge Retail Park,Newbridge,
723415278,node,53.34912,-6.2448431,hairdresser,The Grafton Barber,"Mayor Street Lower, Dublin",Mayor Street Lower,Dublin,
725113287,node,53.3495268,-6.2455903,beauty,Havana,,,,
725114170,node,53.3491072,-6.24465,hairdresser,Vacant,"Mayor Street Lower, Dublin",Mayor Street Lower,Dublin,
725122523,node,53.3494146,-6.2429548,optician,Gilna Opticians,"Mayor Square, Dublin",Mayor Square,Dublin,
725128440,node,53.3492692,-6.2421873,dry_cleaning,Excel,"Mayor Street Lower, Dublin",Mayor Street Lower,Dublin,
727642959,node,53.2759993,-6.354048,tyres,Tallaght Tyres,Old Bawn Shopping Centre,Old Bawn Shopping Centre,,
734148622,node,54.1154475,-9.1414489,supermarket,SuperValu,"Bunree Road, Ballina",Bunree Road,Ballina,
738241020,node,53.331557,-6.27947,alcohol,Next Door Off Licence,"184, South Circular Road",South Circular Road,,
738427490,node,53.3325791,-6.2820667,car_repair,AC Car Sales,,,,
739756766,node,53.3340404,-6.265445,vacant,Unknown,"Camden Street Lower, Dublin",Camden Street Lower,Dublin,
739756782,node,53.3341228,-6.2650193,convenience,Tesco Express,"41, Camden Street Lower, Dublin",Camden Street Lower,Dublin,
739756785,node,53.334941,-6.2649955,deli,Liston's,"26, Camden Street Lower, Dublin",Camden Street Lower,Dublin,
745725788,node,53.9071525,-9.7739475,supermarket,Costcutter,,,,
745996344,node,53.210833,-6.6526017,butcher,Butcher's Kitchen,Ballycane Road,Ballycane Road,,
745996359,node,53.2108804,-6.6525765,greengrocer,Fruit 4 U,"Ballycane Road, Naas",Ballycane Road,Naas,
746008630,node,53.2295944,-6.6888912,car,Volvo Truck and Bus,,,,
746742520,node,53.4055436,-6.3934461,convenience,Spar,,,,
747057296,node,53.1926772,-6.1827097,convenience,Mini Market,"Kilgarron Park, Enniskerry",Kilgarron Park,Enniskerry,
749185412,node,53.1436522,-6.061712,convenience,Unknown,,,,
750951804,node,53.1446392,-6.0780002,supermarket,Donnybrook Fair,"Grattan Court, Greystones, A63 KC86",Grattan Court,Greystones,A63 KC86
752526903,node,53.3491316,-6.243008,stationery,Snap IFSC,"Mayor Square, Dublin",Mayor Square,Dublin,
757039265,node,53.3293651,-6.2753845,bicycle,T. Delaney & Son,"7, Harold's Cross Road, Dublin",Harold's Cross Road,Dublin,
760250448,node,53.2685434,-6.2428952,convenience,Centra,Blackglen Village Centre,Blackglen Village Centre,,
760422938,node,53.2877757,-6.2566763,convenience,Daybreak,Beaumont Avenue,Beaumont Avenue,,
761293929,node,55.1195346,-6.6821322,wine,Winemark,"Greenmount Avenue, Coleraine",Greenmount Avenue,Coleraine,
761293956,node,55.1193383,-6.6822383,convenience,Spar,Greenmount Avenue,Greenmount Avenue,,
764552124,node,53.3799213,-6.582255,clothes,Brand Max,,,,
764552170,node,53.3813317,-6.5822914,mobile_phone,Eir,"Dublin Road, Maynooth",Dublin Road,Maynooth,
765212206,node,53.2693396,-6.8154675,convenience,Mullaney's,,,,
765595216,node,53.2193279,-6.9903391,convenience,Daybreak,,,,
765685571,node,53.3924837,-6.4202832,supermarket,Eurospar,"Cherryfield Lawn, Blanchardstown",Cherryfield Lawn,Blanchardstown,
768231198,node,53.3371884,-6.2867653,convenience,Centra,"Cork Street, Dublin",Cork Street,Dublin,
768231916,node,53.3360735,-6.2989281,florist,Kay's Florist,,,,
768231920,node,53.3361114,-6.2987027,butcher,Ennis Butcher's,,,,
768516994,node,53.3473973,-6.2682315,convenience,Spar,"Capel Street, Dublin",Capel Street,Dublin,
768519995,node,53.3496804,-6.276699,supermarket,Little Italy,,,,
769208492,node,53.339296,-6.3196676,convenience,Savers,"124, Emmet Road, Dublin",Emmet Road,Dublin,
769208493,node,53.3393684,-6.31937,food,Davak Superstores (CLOSED DOWN),"124, Emmet Road, Dublin",Emmet Road,Dublin,
769317913,node,53.759526,-7.2335903,convenience,Unknown,,,,
770108087,node,55.1327127,-6.6787084,convenience,Spar,,,,
770873264,node,53.2869867,-6.3730383,supermarket,Tesco,"Belgard Square East, Tallaght",Belgard Square East,Tallaght,
775278113,node,53.4603504,-6.2456752,convenience,Spar,"Manor Mall Shopping Centre, Swords, Co. Dublin",Manor Mall Shopping Centre,"Swords, Co. Dublin",
775657390,node,53.6223135,-7.6322506,convenience,Unknown,,,,
778232087,node,53.0089944,-6.2996056,convenience,XL McCoy's Convenience Store,,,,
778525904,node,54.9952863,-7.3462599,convenience,McKeevers Newsagents,,,,
778525906,node,54.9939893,-7.3457288,hairdresser,Central Barbers / Natural Hair Salon,,,,
778525917,node,54.9938849,-7.3457098,butcher,Sean's Butchers,,,,
778690158,node,53.3338571,-6.264868,bookmaker,BoyleSports,"45a, Camden Street Lower, Dublin",Camden Street Lower,Dublin,
781486939,node,53.3401408,-6.2608691,convenience,Bus Stop Newsagents,"52, Grafton Street, Dublin",Grafton Street,Dublin,
788417983,node,53.3817996,-6.5945667,clothes,Divine,,,,
788418012,node,53.3819309,-6.5942501,optician,Specsavers,,,,
788418019,node,53.381884,-6.5943623,shoes,Mc Donagh Shoes,,,,
788418028,node,53.3819672,-6.594139,clothes,Shade,,,,
788418033,node,53.3820465,-6.593977,variety_store,Flying Tiger Copenhagen,,,,
788418039,node,53.3820078,-6.5940553,health_food,Holland & Barrett,,,,
788664366,node,53.3818404,-6.5942566,optician,Mullins & Henry Opticians,"Mill Street, Maynooth",Mill Street,Maynooth,
788664368,node,53.3819009,-6.5941229,bakery,Natural Bakery,,,,
788664369,node,53.381941,-6.5939921,computer,iDFL,,,,
788664371,node,53.3819144,-6.5940366,sports,Elvery's,,,,
788664378,node,53.3820338,-6.593791,mobile_phone,Vodafone,,,,
788664380,node,53.3819747,-6.5937059,clothes,Sorrento,,,,
790452118,node,54.6443166,-5.6721779,doityourself,Homebase,,,,
790562695,node,54.6448137,-8.4321604,supermarket,SuperValu,Killybegs,,Killybegs,
794396245,node,54.4633504,-6.0832444,convenience,Co-op Food,"8, Lisburn Street, Hillsborough, BT26 6AB",Lisburn Street,Hillsborough,BT26 6AB
794424966,node,53.4538816,-6.218573,baby_goods,Mothercare,"Malahide Road, Swords",Malahide Road,Swords,
794424982,node,53.4557039,-6.2216615,clothes,Penneys,,,,
795245149,node,53.025616,-7.3000904,supermarket,SuperValu,"Abbeyleix Road, Port Laoise",Abbeyleix Road,Port Laoise,
800039631,node,53.1310861,-6.7426796,alcohol,Nugent's Carry Out,,,,
801854472,node,53.3595586,-6.4300514,motorcycle,Lucan Motorcycles,,,,
801854494,node,53.3595588,-6.4301456,hunting,Lucan Shooting and Fishing,,,,
802192635,node,53.8553257,-9.3051227,clothes,Next,,,,
802192654,node,53.8557989,-9.3050398,department_store,TK Maxx,,,,
802192655,node,53.8552696,-9.3060857,supermarket,ALDI,Link Road,Link Road,,
824181644,node,53.0972091,-6.9483465,convenience,Kelly's Gala,,,,
824413815,node,53.3527829,-6.4600898,newsagent,Hillcrest News,,,,
824415231,node,53.3528413,-6.4599023,video,Xtra-vision,,,,
826982991,node,53.6559335,-6.6812054,furniture,Flower Hill Furniture,,,,
826985497,node,53.6744281,-6.609227,convenience,Hayes,,,,
828684820,node,53.3525484,-6.4597682,dry_cleaning,Krystal Cleaners,,,,
828697467,node,53.352606,-6.459587,jewelry,Diamond & Gem Jewellers,,,,
828698341,node,53.3525216,-6.459861,hairdresser,House Of Hair,,,,
828701267,node,53.352569,-6.4596758,greengrocer,Fix Me,,,,
830659381,node,53.3466056,-6.2926618,books,Eason,,,,
830659412,node,53.3464233,-6.2927892,kiosk,Butlers Chocolate Cafe,"8, Saint John's Road West, Dublin, D08 E2CV",Saint John's Road West,Dublin,D08 E2CV
836244953,node,53.3518082,-6.4622809,laundry,Top Wash Laundrette & Dry Cleaners,,,,
836245395,node,53.3518272,-6.4622429,hairdresser,The Hair Crew,,,,
840275976,node,53.5143056,-9.4487626,convenience,Lowry's,,,,
840628111,node,53.4468432,-6.2249198,doityourself,Woodie's,"Lakeshore Drive, Swords",Lakeshore Drive,Swords,
840628121,node,53.4463374,-6.2264709,sports,McGurk's Golf,"Lakeshore Drive, Swords",Lakeshore Drive,Swords,
840628132,node,53.4462666,-6.226788,furniture,Harry Corry Interiors,"Lakeshore Drive, Swords",Lakeshore Drive,Swords,
840628224,node,53.447393,-6.2232257,car_parts,Halfords,"Lakeshore Drive, Swords",Lakeshore Drive,Swords,
840628236,node,53.4474556,-6.2229574,department_store,Homestore and More,"Lakeshore Drive, Swords",Lakeshore Drive,Swords,
840628266,node,53.4467623,-6.2255595,department_store,Harvey Norman,"Lakeshore Drive, Swords",Lakeshore Drive,Swords,
840628272,node,53.4473304,-6.2234942,carpet,Carpetright,"Lakeshore Drive, Swords",Lakeshore Drive,Swords,
842517402,node,54.4914568,-6.0698651,doityourself,B&Q,,,,
844295330,node,54.0652284,-6.0018985,supermarket,Asda,"51, Newcastle Street, Kilkeel, BT34 4AF",Newcastle Street,Kilkeel,BT34 4AF
844295342,node,54.1092422,-6.044167,convenience,Costcutter,,,,
846868087,node,53.3483647,-6.3910723,electronics,Currys,"Coldcut Road, Dublin",Coldcut Road,Dublin,
846868210,node,53.3483764,-6.3919235,car_parts,Halfords,"Coldcut Road, Dublin",Coldcut Road,Dublin,
846869468,node,53.348389,-6.39247,furniture,Diamond Living,Coldcut Road,Coldcut Road,,
846869708,node,53.348385,-6.392141,interior_decoration,Harry Corry,Coldcut Road,Coldcut Road,,
846870964,node,53.3487865,-6.3932324,houseware,The Range,Coldcut Road,Coldcut Road,,
846871667,node,53.349384,-6.393212,sports,Sports Direct,Coldcut Road,Coldcut Road,,
846875856,node,53.349571,-6.393188,carpet,Carpetright,Coldcut Road,Coldcut Road,,
846877331,node,53.349772,-6.393165,hardware,Nationwide Bathroom And Tiles,Coldcut Road,Coldcut Road,,
847468685,node,54.2379888,-6.1607035,bakery,The Home Bakery,,,,
847468687,node,54.2349744,-6.1641872,supermarket,SuperValu,"John Street, Rathfriland",John Street,Rathfriland,
850273542,node,53.2892594,-9.6551501,doityourself,Homevalue / Abhar Tógála,,,,
850273599,node,53.2896162,-9.6546947,supermarket,Centra,Lettermore,,Lettermore,
850273689,node,53.2891264,-9.666549,convenience,Unknown,,,,
851221691,node,54.3492718,-6.2709469,hairdresser,Salon Six,,,,
851221717,node,54.3497145,-6.2696687,butcher,Fred Elliott's Delicatessen,,,,
851221735,node,54.3563787,-6.2776171,convenience,Your Store,,,,
853777092,node,53.0354613,-6.9060561,trade,C-Mc Energy,,,,
854776581,node,53.4217649,-6.4793373,convenience,Londis,,,,
854776586,node,53.4218169,-6.4794327,hairdresser,The Wagging Tail,,,,
854776590,node,53.4217068,-6.4792519,car,Dunyboyne Auto Parts,,,,
854872021,node,53.3641878,-6.4853414,hairdresser,Pat's Hair Salon,,,,
861247277,node,53.3445278,-7.0446012,supermarket,Centra,"JKL Street, Edenderry",JKL Street,Edenderry,
861311285,node,53.6186161,-8.7414957,supermarket,Eurospar,"Barrack Street, Dunmore",Barrack Street,Dunmore,
865237880,node,54.623609,-5.9757462,convenience,Spar,,,,
868526198,node,54.6287733,-5.9637633,convenience,Co-op Food,Ballysillan Road,Ballysillan Road,,
870020014,node,53.2785494,-6.3169554,convenience,Spar,,,,
870020035,node,53.2784355,-6.3169635,hairdresser,Gillians Beauty Clinic,,,,
871152465,node,54.195088,-6.1448236,convenience,Spar,,,,
872685147,node,53.3386484,-6.3218457,convenience,Tesco Express,"Tyrconnell Road, Dublin",Tyrconnell Road,Dublin,
872695535,node,53.7176454,-6.3556166,supermarket,Londis,Patrick Street,Patrick Street,,
877817464,node,53.3447907,-6.2520325,travel_agency,Marian Pilgrimages,"38-29, Pearse Street, Dublin",Pearse Street,Dublin,
878455321,node,54.258712,-6.9586815,convenience,Mace,,,,
878495558,node,53.3100637,-6.2836233,butcher,O'Toole's,,,,
878495559,node,53.3098871,-6.2829035,supermarket,Mark Downey,,,,
878654870,node,53.3832862,-6.6038125,copyshop,Photocoping Centre,,,,
881173086,node,53.4619079,-6.2312032,doityourself,Howards Hardware,Rathbeale Road,Rathbeale Road,,
881395655,node,53.0148595,-7.299693,convenience,Applegreen,,,,
882293752,node,53.3432885,-6.288857,convenience,Mace,"James Street, Dublin",James Street,Dublin,
886520937,node,53.3646372,-6.361936,art,Farmleigh Gallery,"White's Road, Dublin",White's Road,Dublin,
886531579,node,53.3484384,-6.2975121,bicycle,Phoenix Park Bike Hire,Conyngham Road,Conyngham Road,,
890721268,node,53.3356717,-6.2970248,doityourself,Mannion's,"427-429, South Circular Road",South Circular Road,,
890724796,node,53.3375389,-6.2936749,butcher,C&C Family Butchers,,,,
890728259,node,53.340687,-6.2877229,convenience,Unknown,,,,
890825467,node,53.3445858,-6.2688039,books,The Gutter Bookshop,"8, Cow's Lane, Dublin",Cow's Lane,Dublin,
891551076,node,53.3364068,-6.273357,car_repair,Fast Fit / First Stop,"Malpas Street, Dublin",Malpas Street,Dublin,
895488378,node,53.352002,-6.391642,department_store,Dunnes Stores,,,,
896333872,node,53.3033228,-6.2191742,convenience,Centra,UCD Village,UCD Village,,
896419389,node,54.3908968,-8.5278314,supermarket,SuperValu,Grange,,Grange,
896419408,node,54.2684469,-8.4729363,bicycle,Chain Driven Cycles,"22, High Street, Sligo",High Street,Sligo,
898068571,node,54.2733641,-8.473855,vacant,Unknown,Markievicz Road,Markievicz Road,,
899450824,node,53.5152202,-7.3606579,supermarket,Westmeath Community Development,"Clonmore Link Road, Mullingar",Clonmore Link Road,Mullingar,
899728523,node,55.0186937,-7.3422774,supermarket,Dunnes Stores,"15, Londonderry, BT48 0PU",,Londonderry,BT48 0PU
906844312,node,53.3027758,-6.6980032,sports,Cleere's Angling Centre,,,,
907043575,node,53.3531703,-6.2546514,supermarket,Polonez,,,,
908974531,node,53.5369635,-6.2153103,convenience,Applegreen,,,,
911170192,node,53.3374995,-6.2664452,massage,Thai Massage Centre,"5, Kevin Street Lower",Kevin Street Lower,,
911195158,node,53.3363145,-6.2655766,vacant,Unknown,"91, Camden Street Lower",Camden Street Lower,,
912051636,node,53.3394299,-6.2802127,convenience,Unknown,,,,
913911177,node,53.342661,-6.2421308,supermarket,Supernatural Food Market,"Pearse Street, Dublin",Pearse Street,Dublin,
915231771,node,53.9809322,-9.1142722,convenience,Centra,Foxford,,Foxford,
915604865,node,53.4304099,-6.2464716,books,Eason,,,,
917121154,node,53.1779952,-6.8013174,seafood,Nick's Fish Newbridge,"Moorfield Road, Newbridge",Moorfield Road,Newbridge,
917121156,node,53.1800919,-6.7986845,convenience,Spar,"Edward Street, Newbridge",Edward Street,Newbridge,
919637087,node,53.2762411,-9.0633462,convenience,Londis,"31, Newcastle Road, Galway, H91 C92Y",Newcastle Road,Galway,H91 C92Y
919678086,node,53.3246688,-9.8375675,convenience,Geraghty's,,,,
919866329,node,53.470938,-6.2331296,beauty,jule beauty and therapy,"81, Applewood Main Street, Swords",Applewood Main Street,Swords,
919956771,node,53.2797126,-9.0612508,convenience,Student's Union Shop,Lower Newcastle Road,Lower Newcastle Road,,
920432900,node,53.2928863,-9.0186665,car,Monaghans Car Sales,,,,
920967004,node,53.1104648,-7.1324837,car,Pat Keogh Motorhomes,,,,
920967037,node,53.1099278,-7.1339723,car,Ballybrittas Motors,Main Street,Main Street,,
921361578,node,53.2904409,-8.9872557,supermarket,Dunnes Stores,Galway,,Galway,
922023020,node,54.1002543,-9.3200866,convenience,Londis,Main Street,Main Street,,
925970967,node,53.2717265,-9.0554249,convenience,Bridge Stores,"Bridge Street, Galway",Bridge Street,Galway,
926741964,node,53.4597032,-6.226471,doityourself,Fingal Glass Centre,,,,
928075113,node,53.220672,-6.659214,furniture,Meadows & Byrne,,,,
928354093,node,53.4623602,-6.2296269,florist,Linda's Flowers,"Rathbeale Road, Swords",Rathbeale Road,Swords,
928374602,node,53.4632247,-6.2177323,funeral_directors,Rock's Funeral Home,,,,
928458905,node,53.4581146,-6.221305,books,The Wise Owl,,,,
929087144,node,53.2208612,-6.6584152,hairdresser,Sizzers Hair Design,,,,
929091706,node,53.2205912,-6.6590038,dry_cleaning,The Cleaners,,,,
929246541,node,53.4426502,-6.2273832,interior_decoration,Streamline Kitchens Bedrooms,Swords Road,Swords Road,,
929249314,node,53.4425634,-6.2273046,paint,Johnstone's Leyland Decorating Centre,"Swords Road, Swords",Swords Road,Swords,
929250117,node,53.4424739,-6.2272188,sign,Signs ASAP,Swords Road,Swords Road,,
929250557,node,53.4423972,-6.2271544,clothes,Pat O'Farrell Schoolwear,Swords Road,Swords Road,,
929252025,node,53.442295,-6.2270686,car_repair,Airside Pitstop,Swords Road,Swords Road,,
929410321,node,53.220184,-6.660052,sports,Life Style Sports,,,,
930069437,node,53.5247553,-7.0966452,supermarket,Weirs,,,,
930073299,node,53.5142389,-7.1426841,supermarket,Gala Smth's,,,,
930073469,node,53.5137837,-7.142969,supermarket,Unknown,,,,
930079401,node,53.5075247,-7.136993,supermarket,Gala,,,,
932235235,node,53.6138237,-8.2912122,convenience,Neilan's Store,,,,
932249272,node,53.3235176,-6.2645427,department_store,Dunnes Stores,"Rathmines Road Lower, Dublin",Rathmines Road Lower,Dublin,
937201742,node,53.2934365,-6.6861909,convenience,Centra,"College Road, Clane",College Road,Clane,
937232523,node,53.4337772,-6.1247621,clothes,Beach Boutique,Strand Road,Strand Road,,
937261389,node,53.1101983,-7.135089,convenience,Unknown,"Main Street, Ballybrittas",Main Street,Ballybrittas,
937866721,node,53.3078767,-6.3673115,convenience,Centra,"Ballymount Road, Tallaght",Ballymount Road,Tallaght,
938762775,node,55.0020668,-7.3365646,convenience,McCloskeys Day-Today,Westway,Westway,,
938766637,node,54.9960257,-7.3375581,supermarket,Costcutter,,,,
941376699,node,53.7986867,-9.5231042,outdoor,Portwest,,,,
941376703,node,53.7984578,-9.5235441,outdoor,Portwest - Factory Shop,,,,
941808281,node,53.0911751,-8.2298862,supermarket,Aldi,,,,
942479856,node,54.2844092,-7.9839678,convenience,Clancys of Glenfarne,,,,
942926668,node,53.1811279,-6.7963064,stationery,The Office Center,"Main Street, Newbridge",Main Street,Newbridge,
942926679,node,53.177768,-6.8009738,sports,Life Style Sports,"Unit 12, The Cortyard Shopping Center, Newbridge",The Cortyard Shopping Center,Newbridge,
942926681,node,53.1810183,-6.7965173,vacant,Unknown,"Main Street, Newbridge",Main Street,Newbridge,
942926692,node,53.1801779,-6.7985844,newsagent,Yvonne's Newsagent,"Edward Street, Newbridge",Edward Street,Newbridge,
943042898,node,53.1797975,-6.7990965,variety_store,Donals,"Edward Street, Newbridge",Edward Street,Newbridge,
943337716,node,53.3145123,-6.2822294,alcohol,Green Man Wines,"3, Terenure Road North, Dublin",Terenure Road North,Dublin,
943337717,node,53.3144276,-6.2826284,laundry,Terenure Laundrette & Dry Cleaner,"6, Terenure Road North, Dublin",Terenure Road North,Dublin,
943350470,node,53.3268541,-6.2775301,charity,NCBI,"69, Harold's Cross Road",Harold's Cross Road,,
943350480,node,53.3267538,-6.2776003,laundry,Special Care,"71, Harold's Cross Road",Harold's Cross Road,,
943370419,node,53.2504079,-6.1857512,furniture,IKEA,"7, The Park, D18 VY92",The Park,,D18 VY92
943370425,node,53.2506269,-6.1866277,furniture,Next Home,"5, The Park",The Park,,
943370429,node,53.2523536,-6.1860614,furniture,Harvey Norman,"230, The Park, D18 FH48",The Park,,D18 FH48
943370432,node,53.2504392,-6.1861414,doityourself,Woodie's,"6, The Park",The Park,,
943370433,node,53.2520246,-6.1861479,department_store,TK Maxx,"235, The Park",The Park,,
943370436,node,53.2509425,-6.1865544,outdoor,53 Degrees North,"3, The Park",The Park,,
943370445,node,53.2512622,-6.186371,toys,Smyths,"1, The Park",The Park,,
943370453,node,53.2503464,-6.1850389,electronics,Currys,"9, The Park",The Park,,
943370462,node,53.2511068,-6.1865097,car_parts,Halfords,"2, The Park",The Park,,
943662812,node,53.2931826,-6.3713874,carpet,Carpetright,"Belgard Road, Tallaght",Belgard Road,Tallaght,
943662828,node,53.2931619,-6.3715725,pet,Maxi Zoo,"Belgard Road, Tallaght",Belgard Road,Tallaght,
943864962,node,53.4511697,-6.1703917,chemist,McCabes Pharmacy,"Ard na Mara, Malahide",Ard na Mara,Malahide,
943865289,node,53.451278,-6.1702896,supermarket,Londis,"Ard na Mara, Malahide",Ard na Mara,Malahide,
944053451,node,53.4508196,-6.1538737,chemist,McCabes Pharmacy,,,,
945331590,node,55.0227281,-7.3342016,doityourself,B&Q,,,,
945331598,node,55.0224327,-7.3350894,interior_decoration,Dunelm,Buncrana Road,Buncrana Road,,
945679118,node,53.2861943,-6.2371434,hairdresser,Balally Barbers,"Overend Way, Dundrum",Overend Way,Dundrum,
945712553,node,53.3947884,-6.3943133,department_store,TK Maxx,Blanchardstown Retail Park,Blanchardstown Retail Park,,
946026574,node,53.3946009,-6.1622593,supermarket,Dunnes Stores,"Grange Road, Dublin",Grange Road,Dublin,
946860375,node,53.3721749,-6.0590588,convenience,The Summit Stores,Thormanby Road,Thormanby Road,,
947390568,node,53.2642986,-8.926085,supermarket,Lidl,"Main Street, Oranmore",Main Street,Oranmore,
948542553,node,53.3877275,-6.2797103,convenience,2 Guys,,,,
954568353,node,53.2701423,-6.2249519,bookmaker,Paddy Power,,,,
956048077,node,53.3622689,-6.2730977,supermarket,Tesco,"Phibsboro Shopping Centre, Dublin",Phibsboro Shopping Centre,Dublin,
956221515,node,53.3918395,-6.3903289,clothes,Penneys,,,,
956221522,node,53.3929832,-6.3891721,clothes,Zara,,,,
957074363,node,53.3411571,-6.2745572,antiques,O'Sullivan Antiques,"42-44, Francis Street",Francis Street,,
957075189,node,53.340907,-6.2746363,antiques,Tom's Oddities,,,,
957076243,node,53.340859,-6.2746015,antiques,Niall Mullen Antiques,"57, Francis Street",Francis Street,,
957076749,node,53.3407853,-6.2745559,antique_rugs,Oriental Rugs Co.,"104, Francis Street",Francis Street,,
957077382,node,53.3408685,-6.2748134,antiques,Antique Fireplaces,,,,
957260215,node,54.6578838,-5.6785241,convenience,Unknown,,,,
957531479,node,54.592629,-5.7099715,supermarket,Asda,"7, Circular Road, Newtownards, BT23 4EU",Circular Road,Newtownards,BT23 4EU
958085882,node,53.7457636,-6.5962125,convenience,Sally Garden,,,,
958790486,node,53.1749771,-6.8031335,newsagent,Cards & Things,,,,
958825109,node,53.2348471,-6.6386397,electronics,Expert,"Globe Retail Park, Naas",Globe Retail Park,Naas,
958825111,node,53.235567,-6.6405038,clothes,Brand Max,"Globe Retail Park, Naas",Globe Retail Park,Naas,
958825120,node,53.2353147,-6.6398231,toys,Smyths,"Globe Retail Park, Naas",Globe Retail Park,Naas,
959243525,node,53.2595022,-6.1974414,butcher,O'Coileain,Ballyogan Avenue,Ballyogan Avenue,,
959243529,node,53.2592005,-6.1972928,supermarket,Dunnes Stores,Ballyogan Avenue,Ballyogan Avenue,,
959243543,node,53.2594184,-6.1972151,florist,Fleurtatious,Ballyogan Avenue,Ballyogan Avenue,,
959243558,node,53.2594667,-6.1973552,dry_cleaning,Quality Dry Cleaners,Ballyogan Avenue,Ballyogan Avenue,,
959243559,node,53.2591849,-6.1970597,newsagent,Newsrail,Ballyogan Avenue,Ballyogan Avenue,,
960433657,node,54.1772217,-6.342973,computer,Newry Computer Centre,Monaghan Street,Monaghan Street,,
960938089,node,54.1765567,-6.3373539,bakery,Shelbourne,"69, Hill Street, BT34 1DG",Hill Street,,BT34 1DG
960946530,node,54.1905975,-6.3496332,toys,Smyths,Armagh Road,Armagh Road,,
960946746,node,54.190876,-6.3489212,electronics,Currys,,,,
960954036,node,54.178213,-6.33705,florist,Preston's,,,,
962469694,node,53.1757944,-6.5292064,car_parts,CJ Autoparts & Tyre Center,"Unit 1g, Blessington Business Park, W91 PC81",Blessington Business Park,,W91 PC81
964763365,node,54.169746,-6.580274,car_repair,Marron Alloy,BT35 0JB,,,BT35 0JB
964851432,node,55.1360131,-8.1068977,hairdresser,Barber,,,,
966191037,node,53.181838,-6.795668,bookmaker,Ladbrokes,"Main Street, Newbridge",Main Street,Newbridge,
966191046,node,53.1818897,-6.7955938,convenience,Centra,"Main Street, Newbridge",Main Street,Newbridge,
966197553,node,53.3174068,-6.3617602,motorcycle,Dublin Harley Davidson,,,,
966238363,node,53.39775,-6.2301815,convenience,Centra,"Woodlawn Avenue, Dublin",Woodlawn Avenue,Dublin,
967185912,node,55.0002763,-7.273225,doityourself,Homebase,,,,
967188542,node,54.9997219,-7.2724782,electronics,Currys,Crescent Link Road,Crescent Link Road,,
967191087,node,54.9971434,-7.2748582,car_parts,Halfords,Crescent Link Retail Park,Crescent Link Retail Park,,
967331497,node,53.303621,-8.7493304,convenience,Londis,,,,
968180934,node,54.9950343,-7.3175287,frozen_food,Iceland,"4-M5 Orchard Street, Londonderry, BT48 6XY",4-M5 Orchard Street,Londonderry,BT48 6XY
972063355,node,53.361089,-6.272895,bookmaker,BoyleSports,"Phibsborough Road, Dublin",Phibsborough Road,Dublin,
972094204,node,53.3612797,-6.2725009,beauty,La Mode,"Phibsborough Road, Dublin",Phibsborough Road,Dublin,
972499156,node,53.1803196,-6.7988755,baby_goods,Mothercare,"Charlotte Street, Newbridge",Charlotte Street,Newbridge,
973060883,node,54.9980088,-7.3211204,convenience,Centra,"16, Waterloo Place, Londonderry, BT48 6BU",Waterloo Place,Londonderry,BT48 6BU
973121049,node,54.9943869,-7.3184532,supermarket,Dunnes Stores,"Orchard Street, Londonderry, BT48 6XY",Orchard Street,Londonderry,BT48 6XY
973780786,node,53.3336084,-6.2448288,supermarket,Donnybrook Fair,"Baggot Street Upper, Dublin",Baggot Street Upper,Dublin,
974547643,node,53.3476189,-6.2652403,supermarket,Oriental Emporium,"30-32, Upper Abbey Street, Dublin",Upper Abbey Street,Dublin,
974695158,node,54.536139,-5.5588249,convenience,ViVO Essentials,"Main Street, Greyabbey",Main Street,Greyabbey,
975302715,node,53.3446276,-6.297176,supermarket,SuperValu,"Saint John's Road West, Dublin",Saint John's Road West,Dublin,
976139864,node,53.3460304,-6.2803771,alcohol,Off Licence,,,,
976221810,node,53.4113155,-6.8763409,convenience,Unknown,,,,
979377666,node,53.235899,-6.6241012,convenience,Centra,Johnstown,,Johnstown,
979465104,node,53.4131459,-6.8820132,convenience,Applegreen,M4 Enfield Services East,M4 Enfield Services East,,
979920546,node,53.1750503,-6.8032204,laundry,Care Cleaners,,,,
979920552,node,53.1750394,-6.8029193,music,Top Twenty,,,,
979920554,node,53.1792225,-6.8004074,bookmaker,BoyleSports,"Henry Street, Newbridge",Henry Street,Newbridge,
979920557,node,53.1814352,-6.7977619,laundry,Snow White Dry Cleaners,"Georges Street, Newbridge",Georges Street,Newbridge,
979920581,node,53.1754579,-6.8023819,butcher,Sean Melia Butcher,,,,
979920583,node,53.1811144,-6.7975778,hairdresser,JC Kelly Barbers,"Georges Street, Newbridge",Georges Street,Newbridge,
979920587,node,53.1813877,-6.7976914,hairdresser,Designer Hair,"Georges Street, Newbridge",Georges Street,Newbridge,
979920591,node,53.1754221,-6.8023226,greengrocer,Market Fresh,,,,
983302034,node,53.2832704,-6.3760019,supermarket,Lidl,"Whitestown Way, Tallaght",Whitestown Way,Tallaght,
983302035,node,53.2828356,-6.3762187,pet,Maxi Zoo,Tallaght,,Tallaght,
984249246,node,53.3482018,-6.2944522,convenience,Londis,Parkgate Street,Parkgate Street,,
984249326,node,53.3498148,-6.2840505,convenience,Lilliput Stores,"5, Rosemount Terrace",Rosemount Terrace,,
987772793,node,53.726652,-6.8776804,convenience,Gala,"New Market Street, Kells",New Market Street,Kells,
987772850,node,53.7265192,-6.8770287,vacant,Margaret's Coffee House,,,,
988809528,node,53.3196075,-6.3129817,convenience,Spar,"60, Saint Agnes' Park",Saint Agnes' Park,,
988852237,node,53.3917279,-6.3882419,department_store,Marks & Spencer,,,,
988852242,node,53.3938006,-6.3910669,supermarket,Dunnes Stores,,,,
990048216,node,53.7294584,-6.882797,supermarket,SuperValu,"Circular Road, Kells",Circular Road,Kells,
991652584,node,53.2872119,-6.7669717,doityourself,TJ O'Mahony,,,,
991937587,node,53.9246678,-7.5832238,convenience,Cully's,,,,
992783003,node,53.3383846,-6.279443,outdoor,Southside Angling,"125, Cork Street, Dublin",Cork Street,Dublin,
995137385,node,53.2917973,-6.7545595,convenience,Londis,,,,
995930371,node,54.6765762,-5.9720503,convenience,Unknown,Antrim Road,Antrim Road,,
995930405,node,54.676246,-5.9708632,convenience,Unknown,,,,
996066798,node,53.302215,-6.1786762,clothes,Khan,,,,
998792560,node,53.3412287,-6.2262622,baby_goods,Family Fare,"Fitzwilliam Street, Dublin",Fitzwilliam Street,Dublin,
999254689,node,53.1484477,-7.1829129,convenience,Centra,"Canal Road, Portarlington",Canal Road,Portarlington,
1009312465,node,53.1779808,-6.8007137,mobile_phone,Vodafone,"Unit 9, The Cortyard Shopping Center, Newbridge",The Cortyard Shopping Center,Newbridge,
1009312480,node,53.1783196,-6.800152,clothes,Vanity Fair,"The Cortyard Shopping Center, Newbridge",The Cortyard Shopping Center,Newbridge,
1009312487,node,53.1773635,-6.7999218,department_store,TK Maxx,"The Cortyard Shopping Center, Newbridge",The Cortyard Shopping Center,Newbridge,
1009312508,node,53.1778975,-6.7996674,clothes,Fever Fargon,"The Cortyard Shopping Center, Newbridge",The Cortyard Shopping Center,Newbridge,
1009312510,node,53.1780064,-6.7998442,jewelry,Conways of Newbridge,"Unit 4, The Cortyard Shopping Center, Newbridge",The Cortyard Shopping Center,Newbridge,
1009312526,node,53.1782226,-6.8002821,photo,Photocare,"The Cortyard Shopping Center, Newbridge",The Cortyard Shopping Center,Newbridge,
1009312535,node,53.1783456,-6.8001185,gift,Maisonette interiors & gifts,"Unit 2, The Cortyard Shopping Center, Newbridge",The Cortyard Shopping Center,Newbridge,
1009312567,node,53.1780426,-6.7998904,travel_agency,Curragh Travel,"Unit 3, The Cortyard Shopping Center, Newbridge",The Cortyard Shopping Center,Newbridge,
1009312576,node,53.1782872,-6.8001911,furniture,The Sliding Mirror Door Company Robeplan,"The Cortyard Shopping Center, Newbridge",The Cortyard Shopping Center,Newbridge,
1009312580,node,53.1783868,-6.8000967,mobile_phone,O2,"Unit 1, The Cortyard Shopping Center, Newbridge",The Cortyard Shopping Center,Newbridge,
1009312644,node,53.1779065,-6.8007656,shoes,Cinders Shoe Heaven,"The Cortyard Shopping Center, Newbridge",The Cortyard Shopping Center,Newbridge,
1009312649,node,53.1773347,-6.8002887,health_food,Healthy Living Clinic,"The Cortyard Shopping Center, Newbridge",The Cortyard Shopping Center,Newbridge,
1009312663,node,53.1781525,-6.8000106,alcohol,O'Briens,"Unit 1, The Cortyard Shopping Center, Newbridge",The Cortyard Shopping Center,Newbridge,
1009312668,node,53.1779515,-6.8006841,hairdresser,Perfect Hair,"The Cortyard Shopping Center, Newbridge",The Cortyard Shopping Center,Newbridge,
1009312712,node,53.1778777,-6.7996475,vacant,Unknown,"The Cortyard Shopping Center, Newbridge",The Cortyard Shopping Center,Newbridge,
1012183644,node,54.2719054,-8.4775406,seafood,John the Fish,Holborn Street,Holborn Street,,
1012183648,node,54.270594,-8.4744374,bakery,O' Hehirs,Grattan Street,Grattan Street,,
1012183656,node,54.2675991,-8.4729238,laundry,O' Connors,,,,
1012830688,node,53.1751814,-6.8024835,newsagent,Unknown,,,,
1012830694,node,53.1753109,-6.802582,clothes,"Simply ""chic""",,,,
1012830698,node,53.1798293,-6.7990456,mobile_phone,Meteor,"1, Edward Street, Newbridge",Edward Street,Newbridge,
1012830716,node,53.1799089,-6.7990169,beauty,Alanna's Beauty Clinic,"1, Limerick Lane, Newbridge",Limerick Lane,Newbridge,
1012830722,node,53.1752752,-6.8026432,gift,Prepys Fashion Accessories & Gifts,,,,
1012830726,node,53.179936,-6.7990818,hairdresser,Strands Unisex Hair Studio,"2, Limerick Lane, Newbridge",Limerick Lane,Newbridge,
1012830733,node,53.1800283,-6.7992863,books,Cíll Dara Education Supplies,"4, Limerick Lane, Newbridge",Limerick Lane,Newbridge,
1012830738,node,53.1800829,-6.7993804,clothes,Trends Boutique,"5, Limerick Lane, Newbridge",Limerick Lane,Newbridge,
1012830741,node,53.1808176,-6.7975999,bicycle,McLoughlins Cycles & Nursery,"Main Street, Newbridge",Main Street,Newbridge,
1013165845,node,54.2766304,-8.4582984,car_repair,Mullen & McLaughlin,,,,
1013440118,node,54.271214,-8.4764779,supermarket,Tesco,"O'Connell Street, Sligo",O'Connell Street,Sligo,
1013440130,node,54.273055,-8.4738255,vacant,Unknown,,,,
1025567582,node,53.2878762,-6.7550482,convenience,Spar,,,,
1025567621,node,53.2878846,-6.7548832,antiques,Reillys Antiques,,,,
1028206165,node,53.1308184,-6.7452766,supermarket,Eurospar,Kilcullen,,Kilcullen,
1028206170,node,53.1295606,-6.7463217,convenience,Daybreak,Kilcullen,,Kilcullen,
1029969665,node,53.1793646,-6.799096,jewelry,Sitric Jewellers,"Edward Street, Newbridge",Edward Street,Newbridge,
1031024459,node,53.3024192,-6.244848,bakery,Black Sheep coffee,,,,
1031035910,node,53.3563713,-6.4490022,hairdresser,Lucan Village Barber,"8a, Lucan Road, Lucan",Lucan Road,Lucan,
1034552358,node,54.1676769,-6.3398572,supermarket,Sainsbury's,,,,
1038260891,node,53.2608961,-6.2208013,supermarket,Fresh. The Good Food Market,"Belarmine Avenue, Stepaside",Belarmine Avenue,Stepaside,
1039354467,node,53.2671584,-6.1951734,sports,McGuriks Golf,,,,
1056711322,node,53.2898373,-6.1999596,jewelry,Rocks,Old Dublin Road,Old Dublin Road,,
1056711326,node,53.2893247,-6.2008221,butcher,Fenlons,Old Dublin Road,Old Dublin Road,,
1056711332,node,53.2899782,-6.2001396,alcohol,Tesco Off License,Old Dublin Road,Old Dublin Road,,
1056711337,node,53.2897409,-6.2011094,books,Dubary Books,Old Dublin Road,Old Dublin Road,,
1059878255,node,53.1818172,-6.7957173,bookmaker,Sean Graham Bookmakers,"Main Street, Newbridge",Main Street,Newbridge,
1059878263,node,53.1769553,-6.795764,car_parts,Fergal Allen Motor Factor,"Military Road, Newbridge",Military Road,Newbridge,
1068053939,node,53.3414998,-6.226798,electrical,Eurosales,,,,
1074371064,node,53.2524461,-6.1849681,baby_goods,Mothercare,"205, The Park",The Park,,
1074371703,node,53.2524715,-6.1852415,pet,Petstop,"210, The Park",The Park,,
1074374987,node,53.25251,-6.1856567,sports,Life Style Sports,"220, The Park",The Park,,
1074375460,node,53.252315,-6.1848945,sports,Sports Direct,"200, The Park, D18 YD53",The Park,,D18 YD53
1074387234,node,53.2740773,-6.2058136,doityourself,Woodie's,,,,
1074389232,node,53.2739105,-6.2062642,furniture,Michael Murphy,,,,
1074391949,node,53.2744539,-6.204304,stationery,Bizquip,,,,
1076642051,node,53.2863996,-6.390398,supermarket,SuperValu,"Cookstown Road, Tallaght",Cookstown Road,Tallaght,
1083326255,node,54.266917,-8.495516,butcher,Eamons Meats,,,,
1083578971,node,53.1424878,-7.0577449,supermarket,SuperValu,Monsterevin,,Monsterevin,
1084433269,node,53.181596,-6.7979501,alcohol,Next Door,"George's Street, Newbridge",George's Street,Newbridge,
1084485625,node,53.2411568,-9.5023439,convenience,Costcutter,,,,
1084632618,node,53.2354419,-6.640102,furniture,Hanley's Furniture,"Globe Retail Park, Naas",Globe Retail Park,Naas,
1084632621,node,53.2347663,-6.638392,pet,Maxi Zoo,"Unit 1, Globe Retail Park, Naas",Globe Retail Park,Naas,
1087425058,node,54.2114433,-5.8901132,bakery,Cookie Jar - Mourne and Bread,"121, Main Street, Newcastle, BT33 0AE",Main Street,Newcastle,BT33 0AE
1095630752,node,54.9956007,-7.3181698,department_store,Frasers,"4-M5 Orchard Street, Londonderry, BT48 6XY",4-M5 Orchard Street,Londonderry,BT48 6XY
1095632190,node,54.9951903,-7.3182691,department_store,Marks & Spencer,"Foyle Street, Londonderry, BT48 6XY",Foyle Street,Londonderry,BT48 6XY
1099855699,node,53.3414242,-6.272075,hairdresser,The Salon,"Patrick Street, Dublin",Patrick Street,Dublin,
1099868776,node,53.3414259,-6.2725276,convenience,Daybreak,"Patrick Street, Dublin",Patrick Street,Dublin,
1107005351,node,53.181605,-6.7952547,vacant,Unknown,"Main Street, Newbridge",Main Street,Newbridge,
1107005355,node,53.1821858,-6.7949655,vacant,Unknown,"Main Street, Newbridge",Main Street,Newbridge,
1107005370,node,53.1816421,-6.7951795,hairdresser,Mr Snip's Barbers,"Main Street, Newbridge",Main Street,Newbridge,
1107514629,node,53.3412575,-6.2725484,bicycle,P & K Cycles,Patrick Street,Patrick Street,,
1107684880,node,53.3110162,-6.6089155,butcher,O'Rurkes Butcher,Station Road,Station Road,,
1107684905,node,53.3110995,-6.6089102,convenience,Mace,Station Road,Station Road,,
1112469927,node,54.4936702,-6.7537479,convenience,Eurospar,Moy Road,Moy Road,,
1112822238,node,54.2709033,-8.4749927,books,Eason,O'Connell Street,O'Connell Street,,
1112822307,node,54.271387,-8.474538,bakery,Le Fournil,,,,
1112822589,node,54.271624,-8.474434,tailor,Zip Yard,Rockwood Parade,Rockwood Parade,,
1112822597,node,54.2704267,-8.472411,books,Keohanes,Castle Street,Castle Street,,
1112925202,node,53.3808611,-6.5908826,health_food,I Love Organic,,,,
1113053517,node,54.2741568,-8.4738823,clothes,JAKO,,,,
1113053552,node,54.2743463,-8.4735998,convenience,Mace,,,,
1113240503,node,53.7799709,-6.4877646,convenience,Londis,,,,
1116293583,node,53.3106879,-6.2078976,convenience,Spar,,,,
1116386857,node,53.1789887,-6.7981083,vacant,Unknown,"Cutlery Road, Newbridge",Cutlery Road,Newbridge,
1116386859,node,53.1790476,-6.7982208,travel_agency,Cill Dara Travel,"Cutlery Road, Newbridge",Cutlery Road,Newbridge,
1119814032,node,54.2552193,-8.472605,garden_centre,Unknown,Pearse Road,Pearse Road,,
1120647743,node,53.289912,-6.6824629,supermarket,Dunnes Stores,"Clane Inner Relief Road, Clane",Clane Inner Relief Road,Clane,
1121758407,node,54.5900116,-5.936503,convenience,Mr Spice,"Sandy Row, Belfast",Sandy Row,Belfast,
1121993461,node,53.2872005,-9.0476066,convenience,Castlelawn Heights,"Castlelawn Heights, Galway",Castlelawn Heights,Galway,
1122215725,node,53.290154,-6.6820276,hairdresser,Prestige Barbers,Clane Inner Relief Road,Clane Inner Relief Road,,
1122215731,node,53.2902718,-6.6821117,garden_centre;interior_decoration;pet;toys,Homesavers,"Clane Inner Relief Road, Clane",Clane Inner Relief Road,Clane,
1122215742,node,53.2902317,-6.6821289,beauty,Kalon Beauty,Clane Inner Relief Road,Clane Inner Relief Road,,
1122702949,node,53.3435084,-6.2456365,art,Stone Gallery,"70, Pearse Street, Dublin",Pearse Street,Dublin,
1123424276,node,53.348151,-6.2662982,ticket,Ticketmaster,"Jervis Street, Dublin",Jervis Street,Dublin,
1126141648,node,54.5981102,-5.9299607,clothes,Next,"40-46, Donegall Place, BT1 5BB",Donegall Place,,BT1 5BB
1127158161,node,53.1757674,-6.8009368,hairdresser,Pelo Hairdressing,"Newbridge Retail Park, Newbridge",Newbridge Retail Park,Newbridge,
1127158166,node,53.1754622,-6.8005787,pet,Maxi Zoo,"Unit 14-15, Newbridge Retail Park, Newbridge",Newbridge Retail Park,Newbridge,
1128909417,node,53.2918273,-6.6867842,clothes,Q&M Menswear,,,,
1128909418,node,53.2922639,-6.686978,hairdresser,Clane Barber Shop,,,,
1128909422,node,53.2924189,-6.6870315,bicycle,P. J. Wallace Cycles and Trophies,,,,
1128909423,node,53.2920264,-6.6868789,charity,NCBI,Main Street,Main Street,,
1128909427,node,53.2921224,-6.6869328,optician,Given Opticians,,,,
1128909429,node,53.2914803,-6.6872773,hairdresser,Dave's Barbers,,,,
1128909430,node,53.2920751,-6.6865012,florist,FlowerZ by Amanda,,,,
1128909431,node,53.2923556,-6.6870003,butcher,Tom Gough and Sons,,,,
1139531619,node,53.39686,-6.2638488,bookmaker,Paddy Power,,,,
1146292461,node,53.3412358,-6.2653213,books,Needful Things,"3, Aungier Street",Aungier Street,,
1146437497,node,53.2915071,-6.6861652,religion,Clane Parish Shop,"Main Street, Clane",Main Street,Clane,
1155413316,node,53.1437073,-7.0369685,hometextile,M&M Textiles,,,,
1155686452,node,53.3456697,-6.2601578,supermarket,Tesco Metro,"Fleet Street, Dublin",Fleet Street,Dublin,
1156203343,node,53.1405539,-7.0651102,hardware,Willoughby's Hardware,,,,
1156203368,node,53.1432568,-7.0574284,dry_cleaning,Unknown,,,,
1156203371,node,53.1396785,-7.0649412,florist,Josephine's Flourist,,,,
1156301752,node,53.2844661,-9.0368934,tyres,FastFit,,,,
1158895657,node,54.5016581,-6.6588409,clothes,Home Sweet Home,,,,
1158895668,node,54.5015127,-6.6586328,alcohol,Beer & Wine Shop,,,,
1159022123,node,53.3766452,-6.3164286,convenience,Centra,"Lock-Keeper's Walk, Dublin",Lock-Keeper's Walk,Dublin,
1159164159,node,54.4518305,-6.7944472,convenience,McCanns Shop,,,,
1160948597,node,53.4221935,-7.9974665,supermarket,SuperValu,Athlone,,Athlone,
1160948732,node,53.4225872,-7.9977201,optician,Munnelly Opticians,,,,
1168855984,node,53.1584098,-6.9523018,car,KIA,,,,
1170985087,node,53.1529708,-6.9160627,clothes,Nike,,,,
1170985094,node,53.1539358,-6.9164812,clothes,Reebock,,,,
1171046334,node,53.1811597,-6.7969015,variety_store,2 €uro,"Main Street, Newbridge",Main Street,Newbridge,
1171046402,node,53.1785538,-6.8006128,variety_store,E-Mairt,"Moorfield Road, Newbridge",Moorfield Road,Newbridge,
1171456346,node,53.2861373,-9.0330872,furniture,Fireplaces of Elegance,"Tuam Road, Galway",Tuam Road,Galway,
1171456359,node,53.28597,-9.0334091,fishing,Wildhunter,"Tuam Road, Galway",Tuam Road,Galway,
1171456374,node,53.2862769,-9.0327925,furniture,Carpets and Rug Centre,"Tuam Road, Galway",Tuam Road,Galway,
1171456394,node,53.286229,-9.0328891,furniture,Classic Tiles & Bathroom World,"Tuam Road, Galway",Tuam Road,Galway,
1171456407,node,53.2860899,-9.0331755,convenience,Polonez,"Tuam Road, Galway",Tuam Road,Galway,
1171456425,node,53.2861892,-9.0329831,car_repair,TopPart,,,,
1172922374,node,53.2697039,-8.9307384,supermarket,Tesco,Oranmore,,Oranmore,
1173359642,node,53.2981492,-8.9871072,convenience,Spar,,,,
1174763315,node,53.5676819,-8.2540679,convenience,Connaughton's Day-Today,,,,
1174763358,node,53.568146,-8.2588152,supermarket,Centra,Athleague,,Athleague,
1179605658,node,53.0435915,-9.0467227,perfumery,The Burren Perfumery,,,,
1192623328,node,53.3930481,-6.3895853,clothes,Zara,,,,
1194163441,node,53.5137213,-6.5411285,car_parts,Dunshaughlin Auto Parts,"1, Main Street, Dunshaughlin",Main Street,Dunshaughlin,
1194331126,node,53.4174775,-7.9078109,supermarket,Spar,,,,
1195349448,node,53.3494464,-6.2760605,seafood,Kish Fish,,,,
1199265472,node,53.1813231,-6.7964117,bookmaker,Bet One,"Main Street, Newbridge",Main Street,Newbridge,
1199265481,node,53.1812119,-6.7967503,bookmaker,Paddy Power,"Main Street, Newbridge",Main Street,Newbridge,
1199265493,node,53.1812903,-6.7966561,alcohol,O’Rourke’s,"Main Street, Newbridge, W12 A0E0",Main Street,Newbridge,W12 A0E0
1199265514,node,53.1813971,-6.7962731,travel_agency,Newbridge Travel,"Main Street, Newbridge",Main Street,Newbridge,
1199265539,node,53.1807285,-6.7977612,florist,The Kiosk,"Main Street, Newbridge",Main Street,Newbridge,
1199341928,node,53.1814011,-6.7985212,car,Peter Mooney & Co.,"Eyre Street, Newbridge",Eyre Street,Newbridge,
1199341934,node,53.1814842,-6.7980594,deli,Pawet & Gawet,"Eyre Street, Newbridge",Eyre Street,Newbridge,
1199341961,node,53.1814795,-6.7984163,hairdresser,Mirage Turkish Barber Shop,"Eyre Street, Newbridge",Eyre Street,Newbridge,
1199341964,node,53.1815233,-6.7983485,bookmaker,Ladbrokes,"Eyre Street, Newbridge",Eyre Street,Newbridge,
1199341980,node,53.1809329,-6.7989955,hairdresser,Eyre Hair,"Eyre Street, Newbridge",Eyre Street,Newbridge,
1199342006,node,53.1809612,-6.7989614,beauty,Eyre Beauty,"Eyre Street, Newbridge",Eyre Street,Newbridge,
1199342010,node,53.1810095,-6.7991126,tattoo,The Razors Edge Tattoo,"Eyre Street, Newbridge",Eyre Street,Newbridge,
1199342016,node,53.1812935,-6.7984764,computer,The Computer Shop,"Eyre Street, Newbridge",Eyre Street,Newbridge,
1199342043,node,53.181602,-6.798444,hairdresser,Joe Keogh Barber,"Market Square, Newbridge",Market Square,Newbridge,
1199342046,node,53.1814685,-6.7981249,charity,Mrs Quin's Charity Shop,"Eyre Street, Newbridge",Eyre Street,Newbridge,
1199342054,node,53.1809311,-6.7992384,tailor,Eyre Clothing Alterations,"Eyre Street, Newbridge",Eyre Street,Newbridge,
1199380365,node,53.180789,-6.7990434,hairdresser,The Portland Barber,"Charlotte Street, Newbridge",Charlotte Street,Newbridge,
1199380367,node,53.1807437,-6.7989517,butcher,Malones Foodhall,"Charlotte Street, Newbridge",Charlotte Street,Newbridge,
1199380368,node,53.1806794,-6.7988411,mall,Charlotte Mall,"Charlotte Street, Newbridge",Charlotte Street,Newbridge,
1199380369,node,53.1805969,-6.798721,clothes,Owen Barker Mensware,"Charlotte Street, Newbridge",Charlotte Street,Newbridge,
1199380371,node,53.180822,-6.7991271,shoes,Puss n' Boots,"Charlotte Street, Newbridge",Charlotte Street,Newbridge,
1200096612,node,53.3495232,-6.2437506,hairdresser,Boxx Barbers,"Mayor Square, Dublin",Mayor Square,Dublin,
1201254784,node,53.5083024,-8.8762266,car_repair,Comers Garage,,,,
1201255180,node,53.5077823,-8.8758134,furniture,Mike Mongan - Italian Furniture Store,,,,
1201255243,node,53.5078037,-8.87658,tyres,Express Tyres,,,,
1201255306,node,53.5078179,-8.8764512,car_repair,Auto Care Tuam,,,,
1201268299,node,53.3416724,-8.9457238,car_repair,Pathfinder Oil,,,,
1204208661,node,53.4107668,-6.4415833,convenience,Mace,,,,
1204233400,node,53.3497408,-6.2633146,department_store,Dunnes Stores,"48-50, Henry Street",Henry Street,,
1204233408,node,53.3500814,-6.2654371,supermarket,Dunnes Stores,"Henry Street, Dublin",Henry Street,Dublin,
1206819782,node,53.2029326,-8.5817769,fuel,The Fuel Centre,,,,
1208180824,node,53.4337554,-7.938204,garden_centre,B&Q Garden Centre,,,,
1208180969,node,53.4330099,-7.9396279,bookmaker,Paddy Power,,,,
1209427316,node,53.5225085,-8.3261588,convenience,Holmes Day-Today,,,,
1209487024,node,53.5084223,-8.4296325,convenience,Cunningham's General Merchants,,,,
1209577695,node,53.4738296,-8.5183083,car_repair,McCormacks,,,,
1209610469,node,53.4426151,-8.5116479,car_repair,Noel Delaney Crash Repairs,,,,
1209723170,node,53.1989988,-8.5731508,supermarket,Londis,Main Street,Main Street,,
1209723174,node,53.1985387,-8.5688999,electronics,Expert,Main Street,Main Street,,
1209750193,node,53.1398016,-8.945841,car_repair,Davie Flemming Car Repair,,,,
1209785529,node,53.2083823,-8.8683518,bookmaker,Bar One Racing,,,,
1211171797,node,53.0910893,-8.7730595,hardware,Unknown,,,,
1211198937,node,53.0189053,-6.8003635,craft,Craft Village,,,,
1212230974,node,53.1918473,-6.8090322,convenience,Centra,"Rosberry Hill, Newbridge",Rosberry Hill,Newbridge,
1214321262,node,53.4646271,-8.2170787,supermarket,Tomas Street Stores,Roscommon,,Roscommon,
1218862894,node,53.3113289,-6.2743786,newsagent,Buckley Real Estate,"16/18, Orwell Road",Orwell Road,,
1218862910,node,53.3117191,-6.2746319,hairdresser,Rathgar Studio,"4-6, Orwell Road, Dublin",Orwell Road,Dublin,
1219266976,node,53.3683282,-7.4984055,supermarket,Spar,,,,
1223267151,node,53.3431868,-6.238942,hairdresser,Grafton Barber,"Grand Canal Square, Dublin",Grand Canal Square,Dublin,
1223267158,node,53.3423133,-6.238708,hairdresser,Grand Barbers,"Grand Canal Quay, Dublin",Grand Canal Quay,Dublin,
1223950038,node,53.2903111,-6.2984989,greengrocer,Get Fresh,Marian Road,Marian Road,,
1224364421,node,53.5594171,-6.6600423,convenience,Centra,Kilmessan,,Kilmessan,
1224425324,node,53.5113548,-6.5393461,florist,Flowers by Moira,"Main Street, Dunshaughlin",Main Street,Dunshaughlin,
1224425337,node,53.511295,-6.5393488,laundry,Gill's Dry Cleaners,"Main Street, Dunshaughlin",Main Street,Dunshaughlin,
1224425338,node,53.5115134,-6.5393234,hairdresser,Jazz Hair Studio,"Main Street, Dunshaughlin",Main Street,Dunshaughlin,
1224425340,node,53.5109266,-6.5397006,confectionery,Tara News,"Main Street, Dunshaughlin",Main Street,Dunshaughlin,
1224425343,node,53.5107611,-6.5398289,butcher,Mahon Butchers,"The Gables, Dunshaughlin",The Gables,Dunshaughlin,
1224425347,node,53.5107043,-6.5396923,hairdresser,Barber Shop,"Main Street, Dunshaughlin",Main Street,Dunshaughlin,
1224425349,node,53.5120871,-6.5390536,doityourself,Maddens,"Main Street, Dunshaughlin",Main Street,Dunshaughlin,
1224601187,node,53.5114114,-6.5393354,clothes,Cotton Kids,"Main Street, Dunshaughlin",Main Street,Dunshaughlin,
1224601195,node,53.5112503,-6.5393455,optician,McMahon's Optometrists,"Main Street, Dunshaughlin",Main Street,Dunshaughlin,
1226171155,node,53.3426768,-6.278564,convenience,Tesco Express,"51-52, Thomas Street, Dublin",Thomas Street,Dublin,
1226174524,node,53.3430786,-6.2754627,convenience,Spar,"Cornmarket, Dublin",Cornmarket,Dublin,
1228651138,node,53.3918501,-6.0699608,seafood,Nicky's Plaice,,,,
1228651140,node,53.3907612,-6.0713334,seafood,Reid's,,,,
1228651142,node,53.3914519,-6.0704707,seafood,Mulloy's,,,,
1234642942,node,53.3374332,-6.2669401,vacant,Unknown,"Unit 1, Church Lane South, Dublin",Church Lane South,Dublin,
1247366049,node,53.3513489,-6.2493243,newsagent,Eason,"Amiens Street, D01 V6V6",Amiens Street,,D01 V6V6
1248999446,node,53.9717174,-6.4865963,convenience,Brodigan's,,,,
1252914083,node,53.374283,-6.255392,convenience,ExtraMart,"Home Farm Road, Dublin",Home Farm Road,Dublin,
1254065078,node,53.3106752,-6.208014,yes,Pop Up Shop,"Woodbine Park, Booterstown",Woodbine Park,Booterstown,
1254065080,node,53.3106113,-6.2086091,hairdresser,Xanadu Hair Design,,,,
1256240539,node,53.1982804,-8.5706774,funeral_directors,Unknown,,,,
1256249350,node,53.1988886,-8.5668927,jewelry,Duane Designs,,,,
1256249352,node,53.1989242,-8.5669013,clothes,Penny Lane,,,,
1256249358,node,53.1991423,-8.5670044,computer,Loughrea Computers,,,,
1257321199,node,53.1986564,-8.5670546,clothes,Pia,Main Street,Main Street,,
1257321217,node,53.1985417,-8.5683646,newsagent,News n Choose,,,,
1257321230,node,53.1986731,-8.5678043,bakery,Hopes Bakery & Coffee Shop,,,,
1257321234,node,53.198752,-8.5664504,jewelry,Cunnane,"36, Main Street, Loughrea",Main Street,Loughrea,
1257321253,node,53.1986779,-8.5667674,jewelry,Beatty,,,,
1257321255,node,53.1985668,-8.5690744,vacant,Unknown,,,,
1257321273,node,53.19858,-8.5694931,dry_cleaning,Ara Dry Cleaners,,,,
1257321298,node,53.1985955,-8.5699098,clothes,Bernard Dervan & Co,"64-62, Main Street, Loughrea",Main Street,Loughrea,
1257321320,node,53.1987042,-8.5666697,clothes,Beatty,,,,
1257321349,node,53.1986146,-8.5676149,mobile_phone,Vodafone,Main Street,Main Street,,
1257321367,node,53.1985226,-8.569868,clothes,Stauntons,"Main Street, Loughrea",Main Street,Loughrea,
1257321395,node,53.1985549,-8.5681542,department_store,Beattys,,,,
1257321443,node,53.1985644,-8.5687992,vacant,Unknown,,,,
1257321495,node,53.198623,-8.5674294,vacant,Unknown,,,,
1257321499,node,53.198697,-8.5676168,clothes,Martin Fahy,,,,
1257321515,node,53.1987078,-8.5674813,butcher,Pat Loughnane & Sons,,,,
1257321548,node,53.1986254,-8.5682021,mobile_phone,O2,,,,
1257321557,node,53.1986385,-8.567256,variety_store,Billy's Discount Store,,,,
1257321558,node,53.1985752,-8.5686198,hardware,T.L. O Brien,,,,
1257321587,node,53.1987173,-8.5673457,greengrocer,Donlon's Fruit & Veg,,,,
1257321604,node,53.1986361,-8.5680874,furniture,House n Home,,,,
1259633156,node,54.3721077,-6.5508297,bicycle,Richhill Cycles,,,,
1259633161,node,54.3719897,-6.55144,hairdresser,rich hair,,,,
1259952884,node,53.0527117,-8.3999825,convenience,Q&R,,,,
1262071980,node,54.5960043,-5.6839348,convenience,Unknown,,,,
1262266067,node,53.5073125,-6.4636374,hairdresser,Antonia Gavin Hair Company,"Main Street, Ratoath",Main Street,Ratoath,
1262266080,node,53.5073913,-6.4640867,party,Homeworld,"Dunshaughlin Road, Ratoath",Dunshaughlin Road,Ratoath,
1262266095,node,53.5069807,-6.4590026,convenience,Centra,Ratoath,,Ratoath,
1262424869,node,53.1732357,-6.1424755,gift,Avoca Handweavers,,,,
1262424871,node,53.1733379,-6.1424715,garden_centre,Avoca Handweavers,,,,
1263367085,node,53.2150153,-6.7044288,bathroom_furnishing,btw,"G1, M7 Business Park",M7 Business Park,,
1263367088,node,53.2148665,-6.7047363,pet,Pet Discount Warehouse,"G1, M7 Business Park",M7 Business Park,,
1264001273,node,53.3472395,-6.4070868,doityourself,Homebase,,,,
1264001281,node,53.3476178,-6.4077991,supermarket,Lidl,Fonthill Road North,Fonthill Road North,,
1264001282,node,53.3507758,-6.4056231,sports,Elvery's,,,,
1264001290,node,53.3503347,-6.4057683,variety_store,Dealz,"3, Fonthill Business Park",Fonthill Business Park,,
1264001292,node,53.3482557,-6.4076786,department_store,Homestore and More,Fonthill Road North,Fonthill Road North,,
1264001299,node,53.347981,-6.4077435,tiles,Right Price Tiles,Fonthill Road North,Fonthill Road North,,
1264001305,node,53.3477893,-6.4077806,furniture,EZ Living,Fonthill Road North,Fonthill Road North,,
1264001307,node,53.3510597,-6.4054872,toys,Smyths,Fonthill Business Park,Fonthill Business Park,,
1264001311,node,53.3501434,-6.4059072,furniture,Right Style Furniture,,,,
1266621892,node,53.3433719,-6.2868466,convenience,Centra,"James's Street, Dublin",James's Street,Dublin,
1271222057,node,54.9466044,-7.7416676,convenience,Centra,"Ballymacool Street, Letterkenny",Ballymacool Street,Letterkenny,
1271661635,node,53.6917884,-6.4179205,convenience,Unknown,,,,
1276229106,node,53.1782334,-6.8010192,beauty,Celia's Body & Beauty Therapy,"Moorfield Road, Newbridge",Moorfield Road,Newbridge,
1276229116,node,53.1785262,-6.8006547,greengrocer,Harnetts,"Moorfield Road, Newbridge",Moorfield Road,Newbridge,
1276229117,node,53.1781173,-6.8011707,butcher,Max's Butchers,"Moorfield Road, Newbridge",Moorfield Road,Newbridge,
1276229126,node,53.1782883,-6.8009393,clothes,Extreme Clothing,"Moorfield Road, Newbridge",Moorfield Road,Newbridge,
1276229130,node,53.1783867,-6.800839,hairdresser,Heaven Hair Salon,"Moorfield Road, Newbridge",Moorfield Road,Newbridge,
1276229148,node,53.1782188,-6.8010403,health_food,Natures Options,"Moorfield Road, Newbridge",Moorfield Road,Newbridge,
1276229158,node,53.1781489,-6.8011252,shoes,Katini,"Moorfield Road, Newbridge",Moorfield Road,Newbridge,
1276229164,node,53.1784882,-6.8007184,hairdresser,The Barber Shop,"Moorefield Road, Newbridge",Moorefield Road,Newbridge,
1276327378,node,53.5112132,-6.539701,carpet,Jim O'Brien Carpets,"Main Street, Dunshaughlin",Main Street,Dunshaughlin,
1276327381,node,53.51098,-6.5397064,furniture,Cosi Interiors,"Main Street, Dunshaughlin",Main Street,Dunshaughlin,
1278162485,node,53.2371591,-6.4559627,pet,Aquatic Village,,,,
1279060839,node,54.9460043,-7.7389839,hairdresser,Harkin's Barbers,Pearse Road,Pearse Road,,
1279160996,node,54.946223,-7.7403873,butcher,Shiel's Butchers,Oldtown Road,Oldtown Road,,
1279214815,node,54.9467598,-7.7404406,hairdresser,Patrick Gildea Hair and Beauty,,,,
1279219996,node,54.9473881,-7.7387011,florist,Aanee's Flowers,,,,
1279376856,node,54.9463215,-7.7404318,convenience,Checkout Express,,,,
1279441952,node,53.4935925,-6.1933775,car_parts,Economy Auto Parts,,,,
1285516886,node,53.1770177,-6.7969515,furniture,Timbercraft,"Military Road, Newbridge",Military Road,Newbridge,
1285516887,node,53.1801786,-6.7971349,variety_store,Palmsworth,"Edward Street, Newbridge",Edward Street,Newbridge,
1285516889,node,53.1770417,-6.7955276,recycling,Clearout.ie,"Military Road, Newbridge",Military Road,Newbridge,
1285516890,node,53.1780406,-6.8012738,hairdresser,Razor Lite Barbers,"Moorfield Road, Newbridge",Moorfield Road,Newbridge,
1285516891,node,53.1778588,-6.8014151,optician,Specsavers,"Moorfield Road, Newbridge",Moorfield Road,Newbridge,
